{"102_8": [null, null, null, {"lat": 53.3968546328465, "long": -6.12656607819496, "id": 913, "name": "Baldoyle"}, {"lat": 53.398756896245, "long": -6.12750513786135, "id": 914, "name": "Willie Nolan Road"}, {"lat": 53.4015430636042, "long": -6.13036064599338, "id": 938, "name": "The Coast"}, {"lat": 53.4065549106176, "long": -6.13472849629383, "id": 940, "name": "Coast Road"}, {"lat": 53.4100761024728, "long": -6.13689098610447, "id": 941, "name": "Moyne Bridge"}, {"lat": 53.4150379805998, "long": -6.13864489000412, "id": 942, "name": "St Rita's House"}, {"lat": 53.4182478297384, "long": -6.14217580552131, "id": 943, "name": "Portmarnock Bridge"}, null, {"lat": 53.4216464103948, "long": -6.13647533462087, "id": 3599, "name": "Portmarnock"}, {"lat": 53.4257478599578, "long": -6.13435468795172, "id": 3610, "name": "Carrickhill Rd Lower"}, {"lat": 53.4288464783475, "long": -6.13363204181754, "id": 3611, "name": "Ardilaun"}, {"lat": 53.4312455162842, "long": -6.13473093057642, "id": 6135, "name": "Hillcourt"}, {"lat": 53.4333688566491, "long": -6.13659455646567, "id": 3612, "name": "Portmarnock Comm Sch"}, {"lat": 53.4350997464349, "long": -6.13462231666519, "id": 3613, "name": "Redfern Avenue"}, {"lat": 53.4353131956598, "long": -6.13160263373428, "id": 3615, "name": "Wendell Avenue"}, {"lat": 53.4342760576558, "long": -6.12392681591466, "id": 3616, "name": "Coast Road"}, {"lat": 53.4386940037087, "long": -6.12308488364282, "id": 3618, "name": "Monks Meadow"}, {"lat": 53.4447042716455, "long": -6.12805903347909, "id": 3619, "name": "Robswall Crescent"}, {"lat": 53.446472388703, "long": -6.13421430205896, "id": 3620, "name": "Biscayne"}, {"lat": 53.4494644047502, "long": -6.13991006937344, "id": 3622, "name": "Sea Park"}, {"lat": 53.4506565379305, "long": -6.14374269102433, "id": 3623, "name": "Mayfair"}, {"lat": 53.4508653406917, "long": -6.15257211826829, "id": 4387, "name": "Malahide Village"}, {"lat": 53.4504553094367, "long": -6.15511948757256, "id": 3634, "name": "Malahide Station"}, {"lat": 53.449639949498, "long": -6.16053006209442, "id": 3635, "name": "Cricket Club"}, {"lat": 53.4494224481666, "long": -6.16216557345162, "id": 3636, "name": "St Sylvesters School"}, {"lat": 53.4515617429164, "long": -6.17036978115391, "id": 905, "name": "Yellow Walls Road"}, {"lat": 53.4553999212174, "long": -6.17920983948015, "id": 4331, "name": "Seabury Road"}, {"lat": 53.4527251816362, "long": -6.18358561013729, "id": 3641, "name": "Estuary Road"}, {"lat": 53.4526871929969, "long": -6.18345171238108, "id": 4339, "name": "Estuary Road"}, {"lat": 53.4528771328388, "long": -6.19836582126218, "id": 6010, "name": "Waterside"}, {"lat": 53.448545968329, "long": -6.20440600857739, "id": 3656, "name": "Feltrim Business Pk"}, {"lat": 53.4486643223629, "long": -6.20450640918136, "id": 3653, "name": "Feltrim Business Pk"}, null, null, {"lat": 53.4542368080071, "long": -6.21589621018242, "id": 6054, "name": "Malahide Road"}, {"lat": 53.4547858681153, "long": -6.21835781834225, "id": 4330, "name": "Swords Pavilions SC"}, {"lat": 53.4559770942225, "long": -6.22169616486285, "id": 3691, "name": "Swords Main Street"}, {"lat": 53.4543273513193, "long": -6.22438522745488, "id": 3572, "name": "Forest Road"}, {"lat": 53.4526169020716, "long": -6.2272271834134, "id": 3701, "name": "Ballintrane Wood"}, {"lat": 53.4519723495769, "long": -6.23225306340103, "id": 3702, "name": "River Valley Drive"}, {"lat": 53.452727079109, "long": -6.23710036947053, "id": 3088, "name": "River Valley Heights"}, {"lat": 53.4532572952191, "long": -6.23953282020929, "id": 3704, "name": "River Valley Road"}, {"lat": 53.4528130716975, "long": -6.24415881950415, "id": 3705, "name": "Brookdale Drive"}, {"lat": 53.4494332874232, "long": -6.24047392331495, "id": 733, "name": "Forest View"}, {"lat": 53.4483357564429, "long": -6.23857706724624, "id": 6015, "name": "Cherry Avenue"}, null, null, null, {"lat": 53.4245979352668, "long": -6.23489392667733, "id": 3663, "name": "Corballis Park"}, {"lat": 53.4277439774233, "long": -6.24161073929692, "id": 7348, "name": "Dublin Airport"}], "102_9": [{"lat": 53.4277439774233, "long": -6.24161073929692, "id": 7348, "name": "Dublin Airport"}, {"lat": 53.4284655392397, "long": -6.23507978936044, "id": 3669, "name": "Maldron Hotel"}, {"lat": 53.429399459773, "long": -6.23016510811246, "id": 3671, "name": "Airport Roundabout"}, {"lat": 53.4321755004888, "long": -6.23007985141057, "id": 3672, "name": "Stockhole Lane"}, null, null, {"lat": 53.4478249675248, "long": -6.23807125025827, "id": 6033, "name": "Rathingle Road"}, {"lat": 53.4489647580704, "long": -6.23978564868836, "id": 3089, "name": "Cherry Avenue"}, {"lat": 53.4495837591114, "long": -6.24153671095056, "id": 3090, "name": "Forest View"}, {"lat": 53.4512966547946, "long": -6.24494411897015, "id": 3706, "name": "Forest Crescent"}, {"lat": 53.4523515091409, "long": -6.24455429785117, "id": 3707, "name": "Rathingle Road"}, {"lat": 53.4532639461087, "long": -6.23876459940814, "id": 3708, "name": "Hilltown Road"}, {"lat": 53.4526315736883, "long": -6.23611052796771, "id": 3709, "name": "River Valley Heights"}, {"lat": 53.4520560081519, "long": -6.23122568884024, "id": 3710, "name": "River Valley Drive"}, {"lat": 53.4521609247239, "long": -6.2286013426298, "id": 4925, "name": "Ballintrane Wood"}, {"lat": 53.4544384960758, "long": -6.22460646305411, "id": 4926, "name": "Highfield Green"}, {"lat": 53.4553229225515, "long": -6.22243125343164, "id": 3678, "name": "Swords Main Street"}, {"lat": 53.4543803016732, "long": -6.21587513605336, "id": 6117, "name": "Swords Pavilions SC"}, null, null, {"lat": 53.448545968329, "long": -6.20440600857739, "id": 3656, "name": "Feltrim Business Pk"}, {"lat": 53.4486643223629, "long": -6.20450640918136, "id": 3653, "name": "Feltrim Business Pk"}, {"lat": 53.4529145530048, "long": -6.19786733193736, "id": 6055, "name": "Waterside"}, {"lat": 53.450692509463, "long": -6.18704512577386, "id": 1073, "name": "Chamley Park"}, {"lat": 53.4527251816362, "long": -6.18358561013729, "id": 3641, "name": "Estuary Road"}, {"lat": 53.4551261647174, "long": -6.18129963413735, "id": 3642, "name": "Sacred Heart Church"}, {"lat": 53.4512379025996, "long": -6.16917912660035, "id": 3643, "name": "Yellow Walls Rd"}, {"lat": 53.4493479035552, "long": -6.1631625249754, "id": 3583, "name": "St Sylvesters School"}, {"lat": 53.4498545363505, "long": -6.15987334791898, "id": 3584, "name": "Cricket Club"}, {"lat": 53.4506330921268, "long": -6.15499132484144, "id": 3585, "name": "Malahide Station"}, null, {"lat": 53.4511271472552, "long": -6.14510743008015, "id": 3587, "name": "The Old Golf Links"}, {"lat": 53.4499088963418, "long": -6.14074888133154, "id": 3588, "name": "Sea Park"}, {"lat": 53.4487594020583, "long": -6.1373511779913, "id": 3590, "name": "Muldowney Court"}, {"lat": 53.4460837138291, "long": -6.13234940443323, "id": 3589, "name": "Biscayne"}, {"lat": 53.4446336150143, "long": -6.12756532644502, "id": 3591, "name": "Robswall Crescent"}, {"lat": 53.4378792433162, "long": -6.12271437882169, "id": 3592, "name": "Monks Meadow"}, {"lat": 53.4339680619858, "long": -6.12491871315417, "id": 3605, "name": "Wendell Avenue"}, {"lat": 53.4349291947649, "long": -6.13003907103477, "id": 3606, "name": "Kelvin Close"}, {"lat": 53.4349010292874, "long": -6.13628668774057, "id": 3607, "name": "Redfern Avenue"}, {"lat": 53.4310857730011, "long": -6.13428642172757, "id": 3608, "name": "Hillcourt"}, {"lat": 53.4260851827363, "long": -6.13408409155061, "id": 3609, "name": "Carrickhill Rd Lower"}, {"lat": 53.4217393453328, "long": -6.13609509819768, "id": 3598, "name": "Portmarnock"}, {"lat": 53.4194716115307, "long": -6.13995581550572, "id": 4465, "name": "Hazel Court"}, {"lat": 53.4172420695427, "long": -6.14223470115136, "id": 944, "name": "Coast Road"}, {"lat": 53.4153095523378, "long": -6.13876842932914, "id": 945, "name": "St Rita's House"}, {"lat": 53.4091864740115, "long": -6.13632817520071, "id": 947, "name": "Moyne Bridge"}, {"lat": 53.4061434361123, "long": -6.1342802188575, "id": 948, "name": "Moyne Cottages"}, {"lat": 53.4031715594786, "long": -6.13161277863033, "id": 949, "name": "The Coast"}, {"lat": 53.3978017565975, "long": -6.12678012056698, "id": 928, "name": "Baldoyle"}, null, null, null, null], "102_10": [{"lat": 53.450692509463, "long": -6.18704512577386, "id": 1073, "name": "Chamley Park"}, {"lat": 53.4527251816362, "long": -6.18358561013729, "id": 3641, "name": "Estuary Road"}, {"lat": 53.4551261647174, "long": -6.18129963413735, "id": 3642, "name": "Sacred Heart Church"}, {"lat": 53.4512379025996, "long": -6.16917912660035, "id": 3643, "name": "Yellow Walls Rd"}, {"lat": 53.4493479035552, "long": -6.1631625249754, "id": 3583, "name": "St Sylvesters School"}, {"lat": 53.4498545363505, "long": -6.15987334791898, "id": 3584, "name": "Cricket Club"}, {"lat": 53.4506330921268, "long": -6.15499132484144, "id": 3585, "name": "Malahide Station"}, null, {"lat": 53.4511271472552, "long": -6.14510743008015, "id": 3587, "name": "The Old Golf Links"}, {"lat": 53.4499088963418, "long": -6.14074888133154, "id": 3588, "name": "Sea Park"}, {"lat": 53.4487594020583, "long": -6.1373511779913, "id": 3590, "name": "Muldowney Court"}, {"lat": 53.4460837138291, "long": -6.13234940443323, "id": 3589, "name": "Biscayne"}, {"lat": 53.4446336150143, "long": -6.12756532644502, "id": 3591, "name": "Robswall Crescent"}, {"lat": 53.4378792433162, "long": -6.12271437882169, "id": 3592, "name": "Monks Meadow"}, {"lat": 53.4339680619858, "long": -6.12491871315417, "id": 3605, "name": "Wendell Avenue"}, {"lat": 53.4349291947649, "long": -6.13003907103477, "id": 3606, "name": "Kelvin Close"}, {"lat": 53.4349010292874, "long": -6.13628668774057, "id": 3607, "name": "Redfern Avenue"}, {"lat": 53.4310857730011, "long": -6.13428642172757, "id": 3608, "name": "Hillcourt"}, {"lat": 53.4260851827363, "long": -6.13408409155061, "id": 3609, "name": "Carrickhill Rd Lower"}, {"lat": 53.4217393453328, "long": -6.13609509819768, "id": 3598, "name": "Portmarnock"}, {"lat": 53.4194716115307, "long": -6.13995581550572, "id": 4465, "name": "Hazel Court"}, {"lat": 53.4172420695427, "long": -6.14223470115136, "id": 944, "name": "Coast Road"}, {"lat": 53.4153095523378, "long": -6.13876842932914, "id": 945, "name": "St Rita's House"}, {"lat": 53.4091864740115, "long": -6.13632817520071, "id": 947, "name": "Moyne Bridge"}, {"lat": 53.4061434361123, "long": -6.1342802188575, "id": 948, "name": "Moyne Cottages"}, {"lat": 53.4031715594786, "long": -6.13161277863033, "id": 949, "name": "The Coast"}, {"lat": 53.3978017565975, "long": -6.12678012056698, "id": 928, "name": "Baldoyle"}, null, null, null, null]}