{"114_6": [{"lat": 53.3024801381003, "long": -6.17837083201596, "id": 3085, "name": "Blackrock Station"}, {"lat": 53.3004535895221, "long": -6.17809699943878, "id": 3082, "name": "Frascati Road"}, null, null, null, null, null, null, null, null, null, null, null, null, null, {"lat": 53.2736568459135, "long": -6.20339327021053, "id": 4984, "name": "Burton Hall Road"}, {"lat": 53.2748387450066, "long": -6.20667259332131, "id": 448, "name": "Arena Road"}, null, null, null, {"lat": 53.2761884314741, "long": -6.22297614309675, "id": 4350, "name": "Moreen Avenue stop 4350"}, {"lat": 53.2756669550565, "long": -6.22779626138928, "id": 5143, "name": "Blackthorn Green"}, {"lat": 53.2743919240242, "long": -6.22909358122, "id": 2833, "name": "Greenlands"}, {"lat": 53.2698660357998, "long": -6.22877089286033, "id": 6006, "name": "Kilcross Road"}, {"lat": 53.2652072461263, "long": -6.22978800774307, "id": 3493, "name": "Lambs Cross"}, {"lat": 53.2654029954657, "long": -6.23450229203255, "id": 3494, "name": "Blackglen Road"}, null, null, null], "114_5": [null, null, null, {"lat": 53.2647946193703, "long": -6.24016413495555, "id": 3532, "name": "Blackglen Road"}, {"lat": 53.2654719728793, "long": -6.2343045583035, "id": 3533, "name": "Blackglen Court"}, {"lat": 53.2655320423383, "long": -6.22926487187563, "id": 3491, "name": "Lambs Cross"}, {"lat": 53.2697615820768, "long": -6.22900010899074, "id": 6007, "name": "Kilcross Road"}, {"lat": 53.2758454958058, "long": -6.22771389786936, "id": 4349, "name": "Blackthorn Drive"}, {"lat": 53.2761924013825, "long": -6.22384571458293, "id": 3184, "name": "Moreen Avenue"}, {"lat": 53.2763228251657, "long": -6.2169273788984, "id": 449, "name": "Blackthorn Road"}, {"lat": 53.2750940462784, "long": -6.21349966939981, "id": 450, "name": "Heather Road"}, {"lat": 53.2767339177538, "long": -6.20777790443499, "id": 3181, "name": "Carmanhall Road"}, {"lat": 53.2776744715676, "long": -6.2051742301153, "id": 5142, "name": "Sandyford Luas"}, null, null, null, null, null, null, null, null, null, null, {"lat": 53.2873803132475, "long": -6.1772284026053, "id": 3196, "name": "Newtown Park"}, null, null, null, null, {"lat": 53.3024801381003, "long": -6.17837083201596, "id": 3085, "name": "Blackrock Station"}]}