{"11_40": [{"lat": 53.3863727059716, "long": -6.27430166369757, "id": 6122, "name": "St Pappin's Road"}, {"lat": 53.3862067871037, "long": -6.27091069254095, "id": 35, "name": "Dean Swift Road"}, {"lat": 53.3861268504134, "long": -6.26787706978334, "id": 36, "name": "Maolbuille Road"}, {"lat": 53.3853464011964, "long": -6.2648869813179, "id": 37, "name": "DCU Ballymun Road"}, {"lat": 53.3822365941661, "long": -6.26550952120501, "id": 38, "name": "Hampstead Avenue"}, {"lat": 53.3804141869347, "long": -6.26565875906584, "id": 39, "name": "The Rise"}, {"lat": 53.3766607654531, "long": -6.2646689685279, "id": 40, "name": "Stella Avenue"}, {"lat": 53.3755592683283, "long": -6.26185800624665, "id": 41, "name": "Home Farm Road"}, {"lat": 53.37465027346, "long": -6.25746118972129, "id": 42, "name": "Corpus Christi NS"}, {"lat": 53.3738612202293, "long": -6.25390131043387, "id": 43, "name": "Achill Road"}, {"lat": 53.3730174091229, "long": -6.25213230324291, "id": 44, "name": "Skylon Hotel"}, {"lat": 53.371576725454, "long": -6.2531832038883, "id": 7603, "name": "St Patrick's College"}, {"lat": 53.3699364344031, "long": -6.25410694084961, "id": 45, "name": "DCU St Patrick's"}, {"lat": 53.3671310162176, "long": -6.25525855655008, "id": 46, "name": "Botanic Avenue"}, {"lat": 53.3639161189952, "long": -6.25729825652797, "id": 47, "name": "Drumcondra Rail Stn"}, {"lat": 53.3622573901253, "long": -6.25880841233312, "id": 48, "name": "Fitzroy Avenue"}, {"lat": 53.3600042378903, "long": -6.26085350834049, "id": 49, "name": "Dorset Street Lower"}, {"lat": 53.3578104088118, "long": -6.26327157246547, "id": 51, "name": "Temple Street"}, {"lat": 53.3566607792373, "long": -6.26456528204094, "id": 52, "name": "Dorset Street Upper"}, {"lat": 53.3540562845357, "long": -6.26285336122222, "id": 261, "name": "Parnell Square East"}, {"lat": 53.3485963625842, "long": -6.25948541997207, "id": 271, "name": "O'Connell St Lower"}, {"lat": 53.3426633325129, "long": -6.25634789239425, "id": 404, "name": "Nassau Street"}, {"lat": 53.339930803028, "long": -6.25572351873592, "id": 747, "name": "Kildare Street"}, {"lat": 53.3372519750086, "long": -6.25631338920494, "id": 842, "name": "Stephen's Green East"}, {"lat": 53.3354534454667, "long": -6.25625161826536, "id": 845, "name": "Leeson St Lower"}, {"lat": 53.3334537330024, "long": -6.25411090847852, "id": 846, "name": "Fitzwilliam Place"}, {"lat": 53.3316014451652, "long": -6.25221961965172, "id": 847, "name": "Leeson St Upper"}, {"lat": 53.3297279908182, "long": -6.24888799835484, "id": 848, "name": "Sussex Road"}, {"lat": 53.3278982725913, "long": -6.24792700914128, "id": 849, "name": "Appian Way"}, {"lat": 53.3260857395333, "long": -6.25119903116792, "id": 850, "name": "Chelmsford Road"}, {"lat": 53.3250997052131, "long": -6.25322101602938, "id": 851, "name": "Chelmsford Road"}, {"lat": 53.3244292664946, "long": -6.2528580853708, "id": 852, "name": "Ranelagh"}, {"lat": 53.3225927700081, "long": -6.2483695770726, "id": 853, "name": "Sandford Road"}, {"lat": 53.3216316712804, "long": -6.24657756321513, "id": 854, "name": "Larch Grove"}, {"lat": 53.3193022984582, "long": -6.24281536591718, "id": 855, "name": "Sandford Road"}, {"lat": 53.3176551118177, "long": -6.24082667970814, "id": 856, "name": "Clonskeagh Road"}, {"lat": 53.316567380099, "long": -6.2383798303354, "id": 857, "name": "Clonskeagh Hospital"}, {"lat": 53.3140944728148, "long": -6.23830157217875, "id": 858, "name": "Clonskeagh"}, {"lat": 53.3118411378342, "long": -6.23848441928032, "id": 859, "name": "Whitethorn Road"}, {"lat": 53.3081868512393, "long": -6.23692412398483, "id": 860, "name": "Wynnsward Drive"}, {"lat": 53.3051704314455, "long": -6.23595301016591, "id": 861, "name": "Roebuck Road"}, {"lat": 53.3036079757158, "long": -6.23423182428764, "id": 862, "name": "Islamic Centre"}, {"lat": 53.3001489371458, "long": -6.23311422692276, "id": 3014, "name": "Goatstown Road"}, {"lat": 53.298468626107, "long": -6.23375372021462, "id": 3015, "name": "Larchfield Road"}, {"lat": 53.2964289790414, "long": -6.23319278057591, "id": 3016, "name": "Willowfield Avenue"}, {"lat": 53.2943399277082, "long": -6.23111875106286, "id": 3017, "name": "Hollywood Park"}, {"lat": 53.2920202610345, "long": -6.22864943481371, "id": 3018, "name": "Drummartin Road"}, {"lat": 53.290266993229, "long": -6.22740194572107, "id": 3019, "name": "Eden Park Drive"}, {"lat": 53.2891974088304, "long": -6.22498623014385, "id": 3020, "name": "Drummartin Close"}, {"lat": 53.2890802465063, "long": -6.22134609558517, "id": 3021, "name": "Lower Kilmacud Rd"}, {"lat": 53.2888450960423, "long": -6.2170358952558, "id": 3022, "name": "Mount Anville NS"}, {"lat": 53.2889412477959, "long": -6.21505189955944, "id": 441, "name": "Redesdale Road"}, {"lat": 53.289210271113, "long": -6.21201067633548, "id": 442, "name": "Dale Drive"}, {"lat": 53.2891297950661, "long": -6.20904403446942, "id": 443, "name": "South Avenue"}, {"lat": 53.2881364710411, "long": -6.20754062011916, "id": 444, "name": "Kilmacud Park"}, {"lat": 53.2856885255506, "long": -6.20852802805345, "id": 445, "name": "Kilmacud House"}, {"lat": 53.2831787949921, "long": -6.2089929753599, "id": 4779, "name": "St Raphaela's Road"}, {"lat": 53.2801060992685, "long": -6.21027623488937, "id": 7057, "name": "Stillorgan Luas"}, {"lat": 53.2798151060856, "long": -6.213047796856, "id": 4847, "name": "Blackthorn Drive"}, {"lat": 53.2778139098619, "long": -6.218064987094, "id": 4848, "name": "Maple Avenue"}, {"lat": 53.2763228251657, "long": -6.2169273788984, "id": 449, "name": "Blackthorn Road"}], "11_42": [{"lat": 53.2763228251657, "long": -6.2169273788984, "id": 449, "name": "Blackthorn Road"}, {"lat": 53.2750940462784, "long": -6.21349966939981, "id": 450, "name": "Heather Road"}, {"lat": 53.2767339177538, "long": -6.20777790443499, "id": 3181, "name": "Carmanhall Road"}, {"lat": 53.2783061034002, "long": -6.20772711272781, "id": 451, "name": "Blackthorn Drive"}, {"lat": 53.2802181652868, "long": -6.21055649261036, "id": 447, "name": "Stillorgan Luas"}, {"lat": 53.2835769574855, "long": -6.20917129719242, "id": 5045, "name": "St Raphaela's Road"}, {"lat": 53.2872824764725, "long": -6.2081313492505, "id": 4460, "name": "Whately Place"}, {"lat": 53.2885862777473, "long": -6.20756678779506, "id": 453, "name": "Kilmacud Park"}, {"lat": 53.2891161285805, "long": -6.20992960685972, "id": 454, "name": "South Avenue"}, {"lat": 53.289064309187, "long": -6.21246677173954, "id": 4475, "name": "Dale Drive"}, {"lat": 53.2887871289437, "long": -6.21796830171446, "id": 3023, "name": "Mount Anville NS"}, {"lat": 53.2889759912442, "long": -6.22219042312861, "id": 3024, "name": "Drummartin Park"}, {"lat": 53.2890015162388, "long": -6.22571434862362, "id": 3025, "name": "Drummartin Close"}, {"lat": 53.2908505767397, "long": -6.22796280458605, "id": 3026, "name": "Drummartin Road"}, {"lat": 53.2921967223408, "long": -6.22903216029749, "id": 3027, "name": "Knocknashee"}, {"lat": 53.294707019556, "long": -6.23162864834807, "id": 3028, "name": "Goatstown Road"}, {"lat": 53.2963043315954, "long": -6.23327293824536, "id": 3029, "name": "Goatstown Avenue"}, {"lat": 53.2991571864816, "long": -6.23351525488109, "id": 3030, "name": "Larchfield Road"}, {"lat": 53.3014221650643, "long": -6.23351178616391, "id": 3031, "name": "Roebuck Downs"}, {"lat": 53.3044729934849, "long": -6.23559162446519, "id": 875, "name": "White Oaks"}, {"lat": 53.3052232158178, "long": -6.23709125937863, "id": 876, "name": "Gledswood Drive"}, {"lat": 53.3081533590711, "long": -6.2370905770385, "id": 878, "name": "Clonskeagh Road"}, {"lat": 53.3095041976836, "long": -6.23787531038481, "id": 879, "name": "Annsbrook"}, {"lat": 53.3123137773899, "long": -6.23884015849905, "id": 880, "name": "Richview Office Park"}, {"lat": 53.3145635684128, "long": -6.23841733156693, "id": 881, "name": "Clonskeagh"}, {"lat": 53.3167046565389, "long": -6.23915467649301, "id": 882, "name": "Clonskeagh Hospital"}, {"lat": 53.3176851573317, "long": -6.24103558331428, "id": 883, "name": "Eglinton Road"}, {"lat": 53.3199969912166, "long": -6.24421284442789, "id": 884, "name": "Norwood Park"}, {"lat": 53.3212589673343, "long": -6.24629262123036, "id": 885, "name": "Hollybank Ave Lower"}, {"lat": 53.3225973962252, "long": -6.24868463259578, "id": 886, "name": "Merton Drive"}, {"lat": 53.3242077457424, "long": -6.25246180680158, "id": 887, "name": "Ranelagh"}, {"lat": 53.3255834292566, "long": -6.25249565673739, "id": 903, "name": "Chelmsford Road"}, {"lat": 53.3274174409139, "long": -6.24884751574073, "id": 904, "name": "Appian Way"}, {"lat": 53.3288107659747, "long": -6.24763437727536, "id": 906, "name": "Leeson St Upper"}, {"lat": 53.3297193588591, "long": -6.25075010860462, "id": 907, "name": "St Johns Ambulance"}, {"lat": 53.3311542855373, "long": -6.25237303421837, "id": 908, "name": "Grand Parade"}, {"lat": 53.3331476599204, "long": -6.25407836385524, "id": 909, "name": "Fitzwilliam Place"}, {"lat": 53.3351467148295, "long": -6.25617403577253, "id": 786, "name": "Embassy of Malta"}, {"lat": 53.3408597860312, "long": -6.25840386924726, "id": 793, "name": "Dawson Street"}, null, null, {"lat": 53.3456456323913, "long": -6.25930523253443, "id": 320, "name": "Westmoreland Street"}, {"lat": 53.3515608719055, "long": -6.26122733564312, "id": 278, "name": "O'Connell St Upper"}, {"lat": 53.3525081388281, "long": -6.26393782900767, "id": 7615, "name": "Granby Place"}, {"lat": 53.3533921036497, "long": -6.26538912389949, "id": 10, "name": "Parnell Square West"}, {"lat": 53.3571075162046, "long": -6.26438186733525, "id": 12, "name": "Upper Dorset Street"}, {"lat": 53.3585312378782, "long": -6.26277650570866, "id": 14, "name": "Dorset Street Lower"}, {"lat": 53.3602667075989, "long": -6.26097804267247, "id": 15, "name": "Innisfallen Parade"}, {"lat": 53.3630783243804, "long": -6.25839928847829, "id": 17, "name": "Drumcondra Rail Stn"}, {"lat": 53.3658559259191, "long": -6.2559568206783, "id": 18, "name": "Dargle Road"}, {"lat": 53.3672348759349, "long": -6.25559994097697, "id": 19, "name": "Botanic Avenue"}, {"lat": 53.3701011992972, "long": -6.25431059904437, "id": 21, "name": "DCU St Patrick's"}, {"lat": 53.3715535144783, "long": -6.2534396446411, "id": 7602, "name": "DCU St Patrick\u2019s"}, {"lat": 53.3735036097431, "long": -6.25280375269001, "id": 22, "name": "Home Farm Road"}, {"lat": 53.3742282800816, "long": -6.25626100416695, "id": 23, "name": "Ferguson Road"}, {"lat": 53.3751331588865, "long": -6.26037234812314, "id": 24, "name": "Walsh Road"}, {"lat": 53.3758994661498, "long": -6.26361773641705, "id": 25, "name": "Rathlin Road"}, {"lat": 53.3794389600131, "long": -6.26658526125999, "id": 27, "name": "Ballymun Road"}, {"lat": 53.3815786376305, "long": -6.26600227077734, "id": 28, "name": "Hampstead Avenue"}, {"lat": 53.3834882529482, "long": -6.26566910125412, "id": 29, "name": "Albert College Park"}, {"lat": 53.3849664763564, "long": -6.26533840628634, "id": 4680, "name": "DCU"}, {"lat": 53.3860332259168, "long": -6.26885807727496, "id": 31, "name": "St Pappin's Road"}, {"lat": 53.3861955680761, "long": -6.27137720104136, "id": 32, "name": "Stormanstown Road"}, {"lat": 53.3887179243081, "long": -6.27177114122446, "id": 33, "name": "Glasnevin Drive"}, null, {"lat": 53.3863727059716, "long": -6.27430166369757, "id": 6122, "name": "St Pappin's Road"}], "11_41": [{"lat": 53.3863727059716, "long": -6.27430166369757, "id": 6122, "name": "St Pappin's Road"}, {"lat": 53.3862067871037, "long": -6.27091069254095, "id": 35, "name": "Dean Swift Road"}, {"lat": 53.3861268504134, "long": -6.26787706978334, "id": 36, "name": "Maolbuille Road"}, {"lat": 53.3853464011964, "long": -6.2648869813179, "id": 37, "name": "DCU Ballymun Road"}, {"lat": 53.3822365941661, "long": -6.26550952120501, "id": 38, "name": "Hampstead Avenue"}, {"lat": 53.3804141869347, "long": -6.26565875906584, "id": 39, "name": "The Rise"}, {"lat": 53.3766607654531, "long": -6.2646689685279, "id": 40, "name": "Stella Avenue"}, {"lat": 53.3755592683283, "long": -6.26185800624665, "id": 41, "name": "Home Farm Road"}, {"lat": 53.37465027346, "long": -6.25746118972129, "id": 42, "name": "Corpus Christi NS"}, {"lat": 53.3738612202293, "long": -6.25390131043387, "id": 43, "name": "Achill Road"}, {"lat": 53.3730174091229, "long": -6.25213230324291, "id": 44, "name": "Skylon Hotel"}, {"lat": 53.371576725454, "long": -6.2531832038883, "id": 7603, "name": "St Patrick's College"}, {"lat": 53.3699364344031, "long": -6.25410694084961, "id": 45, "name": "DCU St Patrick's"}, {"lat": 53.3671310162176, "long": -6.25525855655008, "id": 46, "name": "Botanic Avenue"}, {"lat": 53.3639161189952, "long": -6.25729825652797, "id": 47, "name": "Drumcondra Rail Stn"}, {"lat": 53.3622573901253, "long": -6.25880841233312, "id": 48, "name": "Fitzroy Avenue"}, {"lat": 53.3600042378903, "long": -6.26085350834049, "id": 49, "name": "Dorset Street Lower"}, {"lat": 53.3578104088118, "long": -6.26327157246547, "id": 51, "name": "Temple Street"}, {"lat": 53.3566607792373, "long": -6.26456528204094, "id": 52, "name": "Dorset Street Upper"}, {"lat": 53.3540562845357, "long": -6.26285336122222, "id": 261, "name": "Parnell Square East"}, {"lat": 53.3485963625842, "long": -6.25948541997207, "id": 271, "name": "O'Connell St Lower"}], "11_43": [{"lat": 53.2763228251657, "long": -6.2169273788984, "id": 449, "name": "Blackthorn Road"}, {"lat": 53.2750940462784, "long": -6.21349966939981, "id": 450, "name": "Heather Road"}, {"lat": 53.2767339177538, "long": -6.20777790443499, "id": 3181, "name": "Carmanhall Road"}, {"lat": 53.2783061034002, "long": -6.20772711272781, "id": 451, "name": "Blackthorn Drive"}, {"lat": 53.2802181652868, "long": -6.21055649261036, "id": 447, "name": "Stillorgan Luas"}, {"lat": 53.2835769574855, "long": -6.20917129719242, "id": 5045, "name": "St Raphaela's Road"}, {"lat": 53.2872824764725, "long": -6.2081313492505, "id": 4460, "name": "Whately Place"}, {"lat": 53.2885862777473, "long": -6.20756678779506, "id": 453, "name": "Kilmacud Park"}, {"lat": 53.2891161285805, "long": -6.20992960685972, "id": 454, "name": "South Avenue"}, {"lat": 53.289064309187, "long": -6.21246677173954, "id": 4475, "name": "Dale Drive"}, {"lat": 53.2887871289437, "long": -6.21796830171446, "id": 3023, "name": "Mount Anville NS"}, {"lat": 53.2889759912442, "long": -6.22219042312861, "id": 3024, "name": "Drummartin Park"}, {"lat": 53.2890015162388, "long": -6.22571434862362, "id": 3025, "name": "Drummartin Close"}, {"lat": 53.2908505767397, "long": -6.22796280458605, "id": 3026, "name": "Drummartin Road"}, {"lat": 53.2921967223408, "long": -6.22903216029749, "id": 3027, "name": "Knocknashee"}, {"lat": 53.294707019556, "long": -6.23162864834807, "id": 3028, "name": "Goatstown Road"}, {"lat": 53.2963043315954, "long": -6.23327293824536, "id": 3029, "name": "Goatstown Avenue"}, {"lat": 53.2991571864816, "long": -6.23351525488109, "id": 3030, "name": "Larchfield Road"}, {"lat": 53.3014221650643, "long": -6.23351178616391, "id": 3031, "name": "Roebuck Downs"}, {"lat": 53.3044729934849, "long": -6.23559162446519, "id": 875, "name": "White Oaks"}, {"lat": 53.3052232158178, "long": -6.23709125937863, "id": 876, "name": "Gledswood Drive"}, {"lat": 53.3081533590711, "long": -6.2370905770385, "id": 878, "name": "Clonskeagh Road"}, {"lat": 53.3095041976836, "long": -6.23787531038481, "id": 879, "name": "Annsbrook"}, {"lat": 53.3123137773899, "long": -6.23884015849905, "id": 880, "name": "Richview Office Park"}, {"lat": 53.3145635684128, "long": -6.23841733156693, "id": 881, "name": "Clonskeagh"}, {"lat": 53.3167046565389, "long": -6.23915467649301, "id": 882, "name": "Clonskeagh Hospital"}, {"lat": 53.3176851573317, "long": -6.24103558331428, "id": 883, "name": "Eglinton Road"}, {"lat": 53.3199969912166, "long": -6.24421284442789, "id": 884, "name": "Norwood Park"}, {"lat": 53.3212589673343, "long": -6.24629262123036, "id": 885, "name": "Hollybank Ave Lower"}, {"lat": 53.3225973962252, "long": -6.24868463259578, "id": 886, "name": "Merton Drive"}, {"lat": 53.3242077457424, "long": -6.25246180680158, "id": 887, "name": "Ranelagh"}, {"lat": 53.3255834292566, "long": -6.25249565673739, "id": 903, "name": "Chelmsford Road"}, {"lat": 53.3274174409139, "long": -6.24884751574073, "id": 904, "name": "Appian Way"}, {"lat": 53.3288107659747, "long": -6.24763437727536, "id": 906, "name": "Leeson St Upper"}, {"lat": 53.3297193588591, "long": -6.25075010860462, "id": 907, "name": "St Johns Ambulance"}, {"lat": 53.3311542855373, "long": -6.25237303421837, "id": 908, "name": "Grand Parade"}, {"lat": 53.3331476599204, "long": -6.25407836385524, "id": 909, "name": "Fitzwilliam Place"}, {"lat": 53.3351467148295, "long": -6.25617403577253, "id": 786, "name": "Embassy of Malta"}, {"lat": 53.3408597860312, "long": -6.25840386924726, "id": 793, "name": "Dawson Street"}, null, {"lat": 53.3456456323913, "long": -6.25930523253443, "id": 320, "name": "Westmoreland Street"}, {"lat": 53.3515608719055, "long": -6.26122733564312, "id": 278, "name": "O'Connell St Upper"}, {"lat": 53.3525081388281, "long": -6.26393782900767, "id": 7615, "name": "Granby Place"}]}