{"130_11": [{"lat": 53.3650107475168, "long": -6.20502103771957, "id": 1772, "name": "Clontarf Cemetery"}, {"lat": 53.3668109134456, "long": -6.20339753583727, "id": 1773, "name": "Blackheath Park"}, {"lat": 53.3661362371245, "long": -6.19740006471556, "id": 1774, "name": "Blackheath Avenue"}, {"lat": 53.364439983337, "long": -6.1951876537006, "id": 1775, "name": "Vernon Avenue"}, {"lat": 53.3638160053906, "long": -6.19196835160377, "id": 1776, "name": "Seafield Road"}, {"lat": 53.3653120792186, "long": -6.19104846595943, "id": 1777, "name": "Seafield Avenue"}, {"lat": 53.3666136880735, "long": -6.18915998517218, "id": 1778, "name": "Mount Prospect Ave"}, {"lat": 53.3664299769752, "long": -6.18712407524484, "id": 1755, "name": "Seapark"}, {"lat": 53.3672099080456, "long": -6.18285319862781, "id": 1756, "name": "Dollymount Avenue"}, {"lat": 53.3686296418903, "long": -6.18223672762254, "id": 1757, "name": "Park Lawn"}, {"lat": 53.3694410695116, "long": -6.17945199515191, "id": 1794, "name": "Thornhill Lane"}, {"lat": 53.3677761962423, "long": -6.17402284952641, "id": 7469, "name": "Baymount Park"}, {"lat": 53.3657153153797, "long": -6.17444158948892, "id": 1724, "name": "Clontarf Road"}, {"lat": 53.3637602626945, "long": -6.17707965691359, "id": 1725, "name": "Doyle's Lane"}, {"lat": 53.3622913896707, "long": -6.17918587611657, "id": 1726, "name": "Dollymount Park"}, {"lat": 53.3604468636668, "long": -6.18318608956806, "id": 1727, "name": "Bull Island"}, {"lat": 53.3596562743577, "long": -6.18616459625125, "id": 1728, "name": "Wooden Bridge"}, {"lat": 53.3584969058401, "long": -6.19031550974047, "id": 1729, "name": "Clontarf Bus Garage"}, {"lat": 53.3582310907444, "long": -6.19412792894385, "id": 1730, "name": "Vernon Court"}, {"lat": 53.3590767534218, "long": -6.19655620427261, "id": 1731, "name": "John the Baptist Ch"}, {"lat": 53.3600629107631, "long": -6.20234423812548, "id": 1732, "name": "Oultan Road"}, {"lat": 53.3602126155175, "long": -6.20631955975872, "id": 1733, "name": "Clontarf Baths"}, {"lat": 53.3603909611143, "long": -6.21101490848604, "id": 1734, "name": "Castle Avenue"}, {"lat": 53.3611433270935, "long": -6.21443920712782, "id": 1735, "name": "The Stiles Road"}, {"lat": 53.3621421815557, "long": -6.21692174662779, "id": 1736, "name": "St Lawrence Road"}, {"lat": 53.3628580243677, "long": -6.21971672090969, "id": 1737, "name": "Alfie Byrne Road"}, {"lat": 53.3634508756384, "long": -6.22391433414585, "id": 1738, "name": "Clontarf Rd Pitches"}, {"lat": 53.3638851946336, "long": -6.22652585924785, "id": 1739, "name": "Clontarf Station"}, {"lat": 53.3636380024156, "long": -6.23349323029591, "id": 614, "name": "Fairview"}, {"lat": 53.3619064164568, "long": -6.23735129893029, "id": 615, "name": "Annesley Bridge"}, {"lat": 53.3598447138057, "long": -6.23955489630255, "id": 616, "name": "Nth Strand Fire Stn"}, {"lat": 53.3578945210736, "long": -6.24200909637442, "id": 617, "name": "Strandville Avenue"}, {"lat": 53.3561011779693, "long": -6.2447420676032, "id": 618, "name": "Newcomen Bridge"}, {"lat": 53.354044625043, "long": -6.24730533351979, "id": 619, "name": "Amiens Street"}, {"lat": 53.3528581377187, "long": -6.24852575947702, "id": 675, "name": "Buckingham St Lower"}, {"lat": 53.3509610944437, "long": -6.25277955690344, "id": 620, "name": "Talbot Street"}, {"lat": 53.3505177759176, "long": -6.25626764847559, "id": 621, "name": "Talbot Street"}, {"lat": 53.3488581695556, "long": -6.25710145511171, "id": 293, "name": "Abbey St Lower"}], "130_10": [{"lat": 53.3488901530388, "long": -6.25682977423594, "id": 7591, "name": "Abbey Street"}, null, {"lat": 53.3494968761366, "long": -6.2522235786816, "id": 496, "name": "Bus\u00e1ras"}, null, {"lat": 53.3535348728268, "long": -6.24809240079494, "id": 515, "name": "Portland Row"}, {"lat": 53.3556839194156, "long": -6.24570568436261, "id": 516, "name": "North Strand Road"}, {"lat": 53.357680128025, "long": -6.2427090265571, "id": 4384, "name": "Bayview Avenue"}, {"lat": 53.3603387601192, "long": -6.23953452865892, "id": 519, "name": "North Strand Road"}, {"lat": 53.3616370470509, "long": -6.23797846068548, "id": 521, "name": "Annesley Bridge Road"}, {"lat": 53.3632889490314, "long": -6.23541597469792, "id": 522, "name": "Fairview"}, null, {"lat": 53.3642854537147, "long": -6.23169333166141, "id": 523, "name": "Marino College"}, {"lat": 53.3641416167489, "long": -6.22684578734125, "id": 1740, "name": "Clontarf Road"}, {"lat": 53.3631169030887, "long": -6.22080282346908, "id": 1741, "name": "Alfie Byrne Road"}, {"lat": 53.3621257933182, "long": -6.21642658486156, "id": 1742, "name": "St Lawrence Road"}, {"lat": 53.3611356864334, "long": -6.21392866651192, "id": 1743, "name": "The Court"}, {"lat": 53.3603486398978, "long": -6.20879297700673, "id": 1744, "name": "Scoil U\u00ed Chonaill"}, {"lat": 53.3603470796637, "long": -6.2056978849681, "id": 1745, "name": "Clontarf Baths"}, {"lat": 53.3602565190504, "long": -6.20266663792756, "id": 1746, "name": "Oultan Road"}, {"lat": 53.3593509922763, "long": -6.19686014145269, "id": 1747, "name": "John the Baptist Ch"}, {"lat": 53.3582570201159, "long": -6.19346576182185, "id": 1748, "name": "Fortview Avenue"}, {"lat": 53.3585903733516, "long": -6.19055194015273, "id": 1749, "name": "Clontarf Bus Garage"}, {"lat": 53.3598698762831, "long": -6.1854343270318, "id": 1751, "name": "Wooden Bridge"}, {"lat": 53.36112759171, "long": -6.18184991858559, "id": 1752, "name": "Bull Island"}, {"lat": 53.36272396285, "long": -6.17867157318106, "id": 1753, "name": "Dollymount Park"}, {"lat": 53.364115656472, "long": -6.17680903357462, "id": 1754, "name": "Doyle's Lane"}, {"lat": 53.3660002227331, "long": -6.17426410843024, "id": 1759, "name": "The Oaks"}, {"lat": 53.3681296759045, "long": -6.17539029232819, "id": 1758, "name": "Mount Prospect Ave"}, {"lat": 53.3688677027289, "long": -6.17780832862961, "id": 1750, "name": "St Anne's Park"}, {"lat": 53.3688857835725, "long": -6.18194028646471, "id": 1769, "name": "Park Lawn"}, {"lat": 53.3670834687822, "long": -6.18281349818957, "id": 1770, "name": "Dollymount Avenue"}, {"lat": 53.3660419203349, "long": -6.18524714015879, "id": 1771, "name": "St Gabriel's Road"}, {"lat": 53.3659722446543, "long": -6.18775962192302, "id": 1760, "name": "Seapark Road"}, {"lat": 53.3638373979459, "long": -6.18804557985461, "id": 1761, "name": "Seafield Road Junc"}, {"lat": 53.3637511873709, "long": -6.1912498353921, "id": 1762, "name": "Seafield Road"}, {"lat": 53.3644067789443, "long": -6.19536937525232, "id": 1763, "name": "Vernon Avenue"}, {"lat": 53.3658929687458, "long": -6.19557704044876, "id": 1764, "name": "Blackheath Park"}, {"lat": 53.3665514240828, "long": -6.20228141366135, "id": 1765, "name": "Blackheath Grove"}, {"lat": 53.3638273181063, "long": -6.20522105323386, "id": 1767, "name": "Clontarf Castle"}]}