{"140_21": [{"lat": 53.3133721496325, "long": -6.26135424684804, "id": 896, "name": "Palmerston Park"}, {"lat": 53.3142996202644, "long": -6.25838984601834, "id": 897, "name": "Palmerston Road"}, {"lat": 53.3160725163387, "long": -6.25915818006416, "id": 893, "name": "Cowper Road"}, {"lat": 53.3151931375359, "long": -6.26419198051225, "id": 894, "name": "Cowper Road"}, {"lat": 53.3170507712305, "long": -6.26522730644194, "id": 1067, "name": "Rathmines Close"}, {"lat": 53.3205584447214, "long": -6.26538523670879, "id": 1068, "name": "Church Avenue"}, {"lat": 53.3232852636138, "long": -6.26561989541269, "id": 1069, "name": "Swan Centre"}, {"lat": 53.3249801839839, "long": -6.2653559829168, "id": 1070, "name": "Rathmines"}, {"lat": 53.3272180361682, "long": -6.26472471169489, "id": 1071, "name": "St Mary's College"}, {"lat": 53.3288960788753, "long": -6.26453649020507, "id": 4528, "name": "Grove Park"}, {"lat": 53.3310269732615, "long": -6.264585113955, "id": 1072, "name": "South Richmond St"}, {"lat": 53.3338326357244, "long": -6.2652970617047, "id": 7577, "name": "Grantham Street"}, {"lat": 53.3360095336323, "long": -6.26541893799962, "id": 1353, "name": "Pleasants Street"}, {"lat": 53.3390480888895, "long": -6.26607651485756, "id": 1354, "name": "Aungier Street"}, null, {"lat": 53.342460100726, "long": -6.26460140803191, "id": 7578, "name": "Fade Street"}, {"lat": 53.344206378155, "long": -6.26169184885451, "id": 7582, "name": "Dame Street"}, {"lat": 53.3462744267355, "long": -6.25927961394872, "id": 319, "name": "Westmoreland Street"}, {"lat": 53.3485301935152, "long": -6.25987865548785, "id": 7491, "name": "Virtual Stop 1"}, {"lat": 53.3503490838246, "long": -6.2607208686217, "id": 274, "name": "O'Connell St Upper"}, {"lat": 53.3528409105808, "long": -6.26457026121744, "id": 7, "name": "Parnell Square West"}, {"lat": 53.3550406495542, "long": -6.2699793110377, "id": 194, "name": "Western Way"}, {"lat": 53.355011777879, "long": -6.27357097973092, "id": 195, "name": "Broadstone"}, {"lat": 53.356883899293, "long": -6.27375070406949, "id": 196, "name": "Fire Station"}, {"lat": 53.3589526316143, "long": -6.27323137351168, "id": 197, "name": "Monck Place"}, {"lat": 53.361625382881, "long": -6.27283781041656, "id": 198, "name": "Phibsborough SC"}, {"lat": 53.3636218115005, "long": -6.27229124622515, "id": 199, "name": "Munster Street"}, {"lat": 53.3667778214189, "long": -6.27237390919524, "id": 1506, "name": "Finglas Road"}, {"lat": 53.3683905203143, "long": -6.27450269164134, "id": 1507, "name": "St Vincent's School"}, {"lat": 53.3699109022656, "long": -6.27833355115676, "id": 1508, "name": "Glasnevin Cemetery"}, {"lat": 53.3729258340444, "long": -6.28422366048827, "id": 1509, "name": "Slaney Road"}, {"lat": 53.3769069295235, "long": -6.28731023718707, "id": 1510, "name": "Ballyboggan Road"}, {"lat": 53.3782345231803, "long": -6.28775298457063, "id": 1511, "name": "Tolka Vale"}, {"lat": 53.382174322341, "long": -6.29172883549392, "id": 1512, "name": "Prospect Hill"}, {"lat": 53.384474141314, "long": -6.29479375491459, "id": 1538, "name": "Clearwater SC"}, {"lat": 53.3862492132742, "long": -6.2969929338737, "id": 4543, "name": "Wellmount Road"}, {"lat": 53.3970075423561, "long": -6.30454838145874, "id": 1560, "name": "St Margaret's Road"}, {"lat": 53.4001962883511, "long": -6.30314329259751, "id": 1280, "name": "McKelvey Avenue"}, {"lat": 53.4026514127031, "long": -6.30134609639601, "id": 6366, "name": "Century Business Pk"}, {"lat": 53.401409337457, "long": -6.29680859370241, "id": 6230, "name": "Meakstown Centre"}, {"lat": 53.3998306879252, "long": -6.29263072232737, "id": 6228, "name": "Melville"}, {"lat": 53.4019909902297, "long": -6.29159672777449, "id": 7111, "name": "Lanesborough View"}, {"lat": 53.4043825773156, "long": -6.29165129877874, "id": 6365, "name": "Lanesborough Avenue"}, {"lat": 53.4060942638685, "long": -6.2919286500643, "id": 6276, "name": "Seagrave Terrace"}, {"lat": 53.4065006333519, "long": -6.28955091379893, "id": 6362, "name": "Mayeston Lawn"}, {"lat": 53.4061059174926, "long": -6.28084297968941, "id": 7276, "name": "IKEA"}, {"lat": 53.4072962623839, "long": -6.27799727211912, "id": 7149, "name": "IKEA"}], "140_22": [{"lat": 53.3133721496325, "long": -6.26135424684804, "id": 896, "name": "Palmerston Park"}, {"lat": 53.3142996202644, "long": -6.25838984601834, "id": 897, "name": "Palmerston Road"}, {"lat": 53.3160725163387, "long": -6.25915818006416, "id": 893, "name": "Cowper Road"}, {"lat": 53.3151931375359, "long": -6.26419198051225, "id": 894, "name": "Cowper Road"}, {"lat": 53.3170507712305, "long": -6.26522730644194, "id": 1067, "name": "Rathmines Close"}, {"lat": 53.3205584447214, "long": -6.26538523670879, "id": 1068, "name": "Church Avenue"}, {"lat": 53.3232852636138, "long": -6.26561989541269, "id": 1069, "name": "Swan Centre"}, {"lat": 53.3249801839839, "long": -6.2653559829168, "id": 1070, "name": "Rathmines"}, {"lat": 53.3272180361682, "long": -6.26472471169489, "id": 1071, "name": "St Mary's College"}, {"lat": 53.3288960788753, "long": -6.26453649020507, "id": 4528, "name": "Grove Park"}, {"lat": 53.3310269732615, "long": -6.264585113955, "id": 1072, "name": "South Richmond St"}, {"lat": 53.3338326357244, "long": -6.2652970617047, "id": 7577, "name": "Grantham Street"}, {"lat": 53.3360095336323, "long": -6.26541893799962, "id": 1353, "name": "Pleasants Street"}, {"lat": 53.3390480888895, "long": -6.26607651485756, "id": 1354, "name": "Aungier Street"}, null, {"lat": 53.342460100726, "long": -6.26460140803191, "id": 7578, "name": "Fade Street"}, {"lat": 53.344206378155, "long": -6.26169184885451, "id": 7582, "name": "Dame Street"}, {"lat": 53.3462744267355, "long": -6.25927961394872, "id": 319, "name": "Westmoreland Street"}, {"lat": 53.3485301935152, "long": -6.25987865548785, "id": 7491, "name": "Virtual Stop 1"}], "140_19": [{"lat": 53.4072962623839, "long": -6.27799727211912, "id": 7149, "name": "IKEA"}, {"lat": 53.4060008285976, "long": -6.28041102974887, "id": 7277, "name": "St Margaret's Road"}, {"lat": 53.4061452136716, "long": -6.28795578802025, "id": 6363, "name": "Hampton Wood"}, {"lat": 53.4059486027501, "long": -6.29179911788339, "id": 6361, "name": "Jamestown Road"}, {"lat": 53.4038763115708, "long": -6.29144598182622, "id": 6367, "name": "Hampton Wood Road"}, {"lat": 53.402320989219, "long": -6.29141806931841, "id": 4985, "name": "Lanesborough Estate"}, {"lat": 53.3998364912388, "long": -6.29303653633851, "id": 6219, "name": "St Margaret's Road"}, {"lat": 53.4020463209123, "long": -6.29861797097506, "id": 6229, "name": "Melville"}, {"lat": 53.4025827574796, "long": -6.30157442717954, "id": 6364, "name": "Century Business Pk"}, {"lat": 53.3998175109952, "long": -6.30305309451753, "id": 1558, "name": "McKelvey Avenue"}, {"lat": 53.3866641413239, "long": -6.29709664327809, "id": 4542, "name": "Finglas Road"}, {"lat": 53.3837436640296, "long": -6.29336474093081, "id": 1531, "name": "Clearwater SC"}, {"lat": 53.3817441172312, "long": -6.29055850090001, "id": 1532, "name": "Prospect Hill"}, {"lat": 53.3789678847602, "long": -6.28749808800206, "id": 1533, "name": "Tolka Vale"}, {"lat": 53.3753328391602, "long": -6.28597560287492, "id": 1534, "name": "Ballyboggan Road"}, {"lat": 53.3723059581397, "long": -6.28236994393795, "id": 1535, "name": "The Willows"}, {"lat": 53.3695033971709, "long": -6.27687723281354, "id": 1536, "name": "Glasnevin Cemetery"}, {"lat": 53.3680662049802, "long": -6.27320839893696, "id": 1537, "name": "St Vincent's School"}, {"lat": 53.3653553426373, "long": -6.27158997755113, "id": 186, "name": "Lindsay Grove"}, {"lat": 53.3627342523627, "long": -6.27244736533827, "id": 187, "name": "Phibsborough Road"}, {"lat": 53.3601206877577, "long": -6.27258314915006, "id": 188, "name": "North Circular Road"}, {"lat": 53.3571674394906, "long": -6.27346881555335, "id": 189, "name": "Fire Station"}, {"lat": 53.3551257304168, "long": -6.2733710740057, "id": 190, "name": "Broadstone"}, {"lat": 53.3550179485778, "long": -6.26903378050287, "id": 191, "name": "Western Way"}, {"lat": 53.3563040208513, "long": -6.26599198569768, "id": 819, "name": "Blessington Street"}, {"lat": 53.3535353026736, "long": -6.26225862681687, "id": 264, "name": "Parnell Square East"}, {"lat": 53.3502244282738, "long": -6.26018517538047, "id": 6059, "name": "The Spire of Dublin"}, {"lat": 53.3465811562075, "long": -6.25812559112211, "id": 334, "name": "D'Olier Street"}, {"lat": 53.3441585614977, "long": -6.26334590761396, "id": 7581, "name": "Dame Street"}, {"lat": 53.3418087219088, "long": -6.26492822950029, "id": 1283, "name": "S Great George's St"}, {"lat": 53.3382457820909, "long": -6.26591384363467, "id": 7579, "name": "Redmond's Hill"}, {"lat": 53.3343784055905, "long": -6.26512475425716, "id": 1285, "name": "Camden Street Lower"}, {"lat": 53.3311593141903, "long": -6.26441458035507, "id": 1016, "name": "South Richmond St"}, {"lat": 53.3292996511616, "long": -6.26447506533579, "id": 1017, "name": "Rathmines Rd Lower"}, {"lat": 53.3275854590935, "long": -6.26464974527369, "id": 1018, "name": "St Mary's College"}, {"lat": 53.3265475976236, "long": -6.26497711774675, "id": 1019, "name": "Military Road"}, {"lat": 53.3251383837983, "long": -6.26510936447961, "id": 1020, "name": "Rathmines"}, {"lat": 53.3231305919137, "long": -6.26549106260878, "id": 1076, "name": "Swan Centre"}, {"lat": 53.3213802466097, "long": -6.26565212597855, "id": 1021, "name": "Rathmines Rd Upper"}, {"lat": 53.3201481073068, "long": -6.26498157906185, "id": 6042, "name": "Church Avenue"}, {"lat": 53.3195217438279, "long": -6.26455667416159, "id": 1022, "name": "Summerville Park"}, {"lat": 53.3170461890208, "long": -6.26491228899517, "id": 1023, "name": "Rathmines Close"}, {"lat": 53.3158523430772, "long": -6.26502075611143, "id": 1024, "name": "Frankfort Avenue"}, {"lat": 53.3139322642602, "long": -6.26401801846624, "id": 895, "name": "Palmeston Villas"}], "140_16": [{"lat": 53.4072962623839, "long": -6.27799727211912, "id": 7149, "name": "IKEA"}, {"lat": 53.4060008285976, "long": -6.28041102974887, "id": 7277, "name": "St Margaret's Road"}, {"lat": 53.4061452136716, "long": -6.28795578802025, "id": 6363, "name": "Hampton Wood"}, {"lat": 53.4059486027501, "long": -6.29179911788339, "id": 6361, "name": "Jamestown Road"}, {"lat": 53.4038763115708, "long": -6.29144598182622, "id": 6367, "name": "Hampton Wood Road"}, {"lat": 53.402320989219, "long": -6.29141806931841, "id": 4985, "name": "Lanesborough Estate"}, {"lat": 53.3998364912388, "long": -6.29303653633851, "id": 6219, "name": "St Margaret's Road"}, {"lat": 53.4020463209123, "long": -6.29861797097506, "id": 6229, "name": "Melville"}, {"lat": 53.4025827574796, "long": -6.30157442717954, "id": 6364, "name": "Century Business Pk"}, {"lat": 53.3998175109952, "long": -6.30305309451753, "id": 1558, "name": "McKelvey Avenue"}, {"lat": 53.3866641413239, "long": -6.29709664327809, "id": 4542, "name": "Finglas Road"}, {"lat": 53.3837436640296, "long": -6.29336474093081, "id": 1531, "name": "Clearwater SC"}, {"lat": 53.3817441172312, "long": -6.29055850090001, "id": 1532, "name": "Prospect Hill"}, {"lat": 53.3789678847602, "long": -6.28749808800206, "id": 1533, "name": "Tolka Vale"}, {"lat": 53.3753328391602, "long": -6.28597560287492, "id": 1534, "name": "Ballyboggan Road"}, {"lat": 53.3723059581397, "long": -6.28236994393795, "id": 1535, "name": "The Willows"}, {"lat": 53.3695033971709, "long": -6.27687723281354, "id": 1536, "name": "Glasnevin Cemetery"}, {"lat": 53.3680662049802, "long": -6.27320839893696, "id": 1537, "name": "St Vincent's School"}, {"lat": 53.3653553426373, "long": -6.27158997755113, "id": 186, "name": "Lindsay Grove"}, {"lat": 53.3627342523627, "long": -6.27244736533827, "id": 187, "name": "Phibsborough Road"}, {"lat": 53.3601206877577, "long": -6.27258314915006, "id": 188, "name": "North Circular Road"}, {"lat": 53.3571674394906, "long": -6.27346881555335, "id": 189, "name": "Fire Station"}, {"lat": 53.3551257304168, "long": -6.2733710740057, "id": 190, "name": "Broadstone"}, {"lat": 53.3550179485778, "long": -6.26903378050287, "id": 191, "name": "Western Way"}, {"lat": 53.3563040208513, "long": -6.26599198569768, "id": 819, "name": "Blessington Street"}, {"lat": 53.3535353026736, "long": -6.26225862681687, "id": 264, "name": "Parnell Square East"}], "140_20": [{"lat": 53.4072962623839, "long": -6.27799727211912, "id": 7149, "name": "IKEA"}, {"lat": 53.4060008285976, "long": -6.28041102974887, "id": 7277, "name": "St Margaret's Road"}, {"lat": 53.4061452136716, "long": -6.28795578802025, "id": 6363, "name": "Hampton Wood"}, {"lat": 53.4059486027501, "long": -6.29179911788339, "id": 6361, "name": "Jamestown Road"}, {"lat": 53.4038763115708, "long": -6.29144598182622, "id": 6367, "name": "Hampton Wood Road"}, {"lat": 53.402320989219, "long": -6.29141806931841, "id": 4985, "name": "Lanesborough Estate"}, {"lat": 53.3998364912388, "long": -6.29303653633851, "id": 6219, "name": "St Margaret's Road"}, {"lat": 53.4020463209123, "long": -6.29861797097506, "id": 6229, "name": "Melville"}, {"lat": 53.4025827574796, "long": -6.30157442717954, "id": 6364, "name": "Century Business Pk"}, {"lat": 53.3998175109952, "long": -6.30305309451753, "id": 1558, "name": "McKelvey Avenue"}, {"lat": 53.3866641413239, "long": -6.29709664327809, "id": 4542, "name": "Finglas Road"}, {"lat": 53.3837436640296, "long": -6.29336474093081, "id": 1531, "name": "Clearwater SC"}, {"lat": 53.3817441172312, "long": -6.29055850090001, "id": 1532, "name": "Prospect Hill"}, {"lat": 53.3789678847602, "long": -6.28749808800206, "id": 1533, "name": "Tolka Vale"}, {"lat": 53.3753328391602, "long": -6.28597560287492, "id": 1534, "name": "Ballyboggan Road"}, {"lat": 53.3723059581397, "long": -6.28236994393795, "id": 1535, "name": "The Willows"}, {"lat": 53.3695033971709, "long": -6.27687723281354, "id": 1536, "name": "Glasnevin Cemetery"}, {"lat": 53.3680662049802, "long": -6.27320839893696, "id": 1537, "name": "St Vincent's School"}, {"lat": 53.3653553426373, "long": -6.27158997755113, "id": 186, "name": "Lindsay Grove"}, {"lat": 53.3627342523627, "long": -6.27244736533827, "id": 187, "name": "Phibsborough Road"}, {"lat": 53.3601206877577, "long": -6.27258314915006, "id": 188, "name": "North Circular Road"}, {"lat": 53.3571674394906, "long": -6.27346881555335, "id": 189, "name": "Fire Station"}, {"lat": 53.3551257304168, "long": -6.2733710740057, "id": 190, "name": "Broadstone"}, {"lat": 53.3550179485778, "long": -6.26903378050287, "id": 191, "name": "Western Way"}, {"lat": 53.3563040208513, "long": -6.26599198569768, "id": 819, "name": "Blessington Street"}, {"lat": 53.3535353026736, "long": -6.26225862681687, "id": 264, "name": "Parnell Square East"}, {"lat": 53.3502244282738, "long": -6.26018517538047, "id": 6059, "name": "The Spire of Dublin"}]}