{"16D_30": [{"lat": 53.428019654753, "long": -6.24202072636356, "id": 7347, "name": "Dublin Airport T1"}, {"lat": 53.4284655392397, "long": -6.23507978936044, "id": 3669, "name": "Maldron Hotel"}, {"lat": 53.4252783851206, "long": -6.23471525444994, "id": 7349, "name": "Radisson Hotel"}, {"lat": 53.4224056452139, "long": -6.23069639806362, "id": 1631, "name": "ALSAA Sports Club"}, {"lat": 53.4205001547191, "long": -6.23312273044989, "id": 1632, "name": "Toberbunny Lodge"}, {"lat": 53.4196418846322, "long": -6.23464786274613, "id": 5053, "name": "Swords Road"}, {"lat": 53.418132874974, "long": -6.23714772554778, "id": 1633, "name": "Dardistown Cemetery"}, {"lat": 53.4134569583756, "long": -6.23883046648288, "id": 1634, "name": "Collinstown Park"}, {"lat": 53.4117049122348, "long": -6.23887277719418, "id": 1635, "name": "Woodland Ind Est"}, {"lat": 53.4082527144955, "long": -6.23760147278675, "id": 1636, "name": "Turnapin Lane"}, {"lat": 53.404039651401, "long": -6.24019713579677, "id": 1637, "name": "Santry Close"}, {"lat": 53.4017493779661, "long": -6.24214152972318, "id": 1638, "name": "Morton Stadium"}, {"lat": 53.3965093891247, "long": -6.24519965451048, "id": 1639, "name": "Schoolhouse Lane"}, {"lat": 53.3923505009685, "long": -6.24598724998319, "id": 1640, "name": "Omni Park SC"}, {"lat": 53.3892400769873, "long": -6.24594976380667, "id": 231, "name": "Shanvarna Road Est"}, {"lat": 53.3865272844368, "long": -6.24239296645785, "id": 1641, "name": "Ellenfield Park"}, {"lat": 53.383947889346, "long": -6.24362672228704, "id": 1642, "name": "Whitehall Church"}, {"lat": 53.381449544026, "long": -6.24487202356891, "id": 213, "name": "Iveragh Road"}, {"lat": 53.3794084835756, "long": -6.24665455182551, "id": 214, "name": "Highfield Hospital"}, {"lat": 53.3772074698895, "long": -6.248563718842, "id": 4432, "name": "Griffith Downs"}, {"lat": 53.3751904807261, "long": -6.25076574528229, "id": 119, "name": "The Village"}, {"lat": 53.3730174091229, "long": -6.25213230324291, "id": 44, "name": "Skylon Hotel"}, {"lat": 53.371576725454, "long": -6.2531832038883, "id": 7603, "name": "St Patrick's College"}, {"lat": 53.3699364344031, "long": -6.25410694084961, "id": 45, "name": "DCU St Patrick's"}, {"lat": 53.3671310162176, "long": -6.25525855655008, "id": 46, "name": "Botanic Avenue"}, {"lat": 53.3639161189952, "long": -6.25729825652797, "id": 47, "name": "Drumcondra Rail Stn"}, {"lat": 53.3622573901253, "long": -6.25880841233312, "id": 48, "name": "Fitzroy Avenue"}, {"lat": 53.3600042378903, "long": -6.26085350834049, "id": 49, "name": "Dorset Street Lower"}, {"lat": 53.3578104088118, "long": -6.26327157246547, "id": 51, "name": "Temple Street"}, {"lat": 53.3566607792373, "long": -6.26456528204094, "id": 52, "name": "Dorset Street Upper"}, {"lat": 53.3539469610418, "long": -6.26275264892104, "id": 262, "name": "Parnell Square East"}, {"lat": 53.3506233915332, "long": -6.26042429163428, "id": 270, "name": "O'Connell St Upper"}, {"lat": 53.3462516394318, "long": -6.25771846673942, "id": 336, "name": "D'Olier Street"}, {"lat": 53.3442604935982, "long": -6.26170466649099, "id": 1279, "name": "College Green"}, {"lat": 53.3423417958814, "long": -6.26450108272727, "id": 1282, "name": "S Great George's St"}, {"lat": 53.3399144044976, "long": -6.26569595730069, "id": 4456, "name": "Whitefriars St"}, {"lat": 53.3381283509689, "long": -6.26587355723321, "id": 1284, "name": "Redmond's Hill"}, {"lat": 53.3343784055905, "long": -6.26512475425716, "id": 1285, "name": "Camden Street Lower"}, {"lat": 53.3324783725652, "long": -6.26611779066566, "id": 1287, "name": "Synge Street"}, {"lat": 53.3323227536349, "long": -6.2696376223493, "id": 1288, "name": "Victoria Street"}, {"lat": 53.3321293613202, "long": -6.27303883277022, "id": 1289, "name": "Longwood Avenue"}, {"lat": 53.3307310456567, "long": -6.27516731880569, "id": 1290, "name": "Clanbrassil St Upper"}, {"lat": 53.3284466111575, "long": -6.27631044140605, "id": 1291, "name": "Harold's Cross Road"}, {"lat": 53.3256246051373, "long": -6.27819570402239, "id": 1292, "name": "Harold's Cross Park"}, {"lat": 53.3228603639143, "long": -6.2791026297328, "id": 1293, "name": "Parkview Avenue"}, {"lat": 53.3206000262763, "long": -6.27880330627749, "id": 1294, "name": "Lady of the Rosary"}, {"lat": 53.3179148923088, "long": -6.27958681712629, "id": 1295, "name": "Kenilworth Park"}, {"lat": 53.3155627461367, "long": -6.28164762292474, "id": 1296, "name": "Mount Tallant Avenue"}, {"lat": 53.3124096124198, "long": -6.28238961414191, "id": 1297, "name": "Whitton Road"}, {"lat": 53.3107469924743, "long": -6.28302665100765, "id": 1298, "name": "Terenure"}, {"lat": 53.308395702782, "long": -6.28390135641409, "id": 1299, "name": "Rathfarnham Road"}, {"lat": 53.3061507463875, "long": -6.28342117670719, "id": 1300, "name": "Rathdown Park"}, {"lat": 53.3038958093831, "long": -6.28349663113993, "id": 1301, "name": "Dodder Park Road"}, {"lat": 53.3016627220282, "long": -6.28384127490986, "id": 1302, "name": "Crannagh Road"}, {"lat": 53.299342312629, "long": -6.28373927808224, "id": 1303, "name": "Rathfarnham Castle"}, {"lat": 53.2981765474708, "long": -6.28455117924164, "id": 1304, "name": "Butterfield Avenue"}, {"lat": 53.296169599544, "long": -6.28374647794414, "id": 1305, "name": "Willbrook Road"}, {"lat": 53.2944654209456, "long": -6.28087446913157, "id": 1320, "name": "Loretto Terrace"}, {"lat": 53.2924619720419, "long": -6.28218500902616, "id": 1321, "name": "Aranleigh"}, {"lat": 53.2907131008228, "long": -6.28245018883564, "id": 1322, "name": "Tara Hill Road"}, {"lat": 53.2890805751895, "long": -6.28268067902166, "id": 1323, "name": "Barton Drive"}, {"lat": 53.2872489118846, "long": -6.28281414193194, "id": 1324, "name": "Barton Road West"}, {"lat": 53.2846615487396, "long": -6.28102811714662, "id": 7068, "name": "St Enda's Park"}, {"lat": 53.2824740661622, "long": -6.27892628584238, "id": 2966, "name": "Hermitage Avenue"}, {"lat": 53.2813395031703, "long": -6.27691727465225, "id": 2967, "name": "Eden Avenue"}, {"lat": 53.2803293260054, "long": -6.27356864456597, "id": 2968, "name": "Three Rock Rovers"}, {"lat": 53.2794027289323, "long": -6.27041174873558, "id": 2969, "name": "Marley Park"}, {"lat": 53.2781706300696, "long": -6.2672673468708, "id": 2970, "name": "Grange Road"}, {"lat": 53.2762927713665, "long": -6.26422427079278, "id": 2971, "name": "Stonemasons Way"}, {"lat": 53.2735579991938, "long": -6.25974678565155, "id": 5051, "name": "Pine Valley"}, {"lat": 53.272031363148, "long": -6.25492078421175, "id": 5052, "name": "Grange Hall"}, {"lat": 53.2718651810728, "long": -6.24788043364341, "id": 2975, "name": "Kingston"}]}