{"236_10": [{"lat": 53.4204690922795, "long": -6.41942316227849, "id": 4745, "name": "Damastown IBM"}, {"lat": 53.4191096563709, "long": -6.41789383144669, "id": 4989, "name": "IBM Campus"}, {"lat": 53.4117260673906, "long": -6.42298155958629, "id": 4990, "name": "Damastown Road"}, {"lat": 53.4110854187663, "long": -6.42007198510991, "id": 4991, "name": "Damastown Green"}, {"lat": 53.4106754626599, "long": -6.41762024198772, "id": 4992, "name": "Damastown Ind Park"}, {"lat": 53.4152032703383, "long": -6.38524305833723, "id": 4986, "name": "Curragh Hall"}, {"lat": 53.4170474415293, "long": -6.38603072502407, "id": 7107, "name": "Ballentree Avenue"}, {"lat": 53.4181504664114, "long": -6.38717750516206, "id": 7102, "name": "Bealing Walk"}, {"lat": 53.4198303804533, "long": -6.39311711572295, "id": 7103, "name": "Cruise Park"}, {"lat": 53.4219165430792, "long": -6.39118774250755, "id": 7104, "name": "Mount Garrett"}, {"lat": 53.4213506902989, "long": -6.38788391150304, "id": 7105, "name": "Mount Eustace"}, {"lat": 53.4209886478085, "long": -6.38570089107588, "id": 7106, "name": "Bellgree Avenue"}, {"lat": 53.4109617026683, "long": -6.37601723284506, "id": 5071, "name": "Alexion"}, {"lat": 53.4093093811824, "long": -6.37084559393008, "id": 5072, "name": "Corporate Park"}, {"lat": 53.4115449191932, "long": -6.37000801375909, "id": 4321, "name": "Cold Stores"}, null, {"lat": 53.4127668338625, "long": -6.36078495833773, "id": 7342, "name": "Corporate Park 2"}, {"lat": 53.4082421006173, "long": -6.35789047220709, "id": 7125, "name": "Ballycoolin Bus Pk"}, {"lat": 53.4046892107179, "long": -6.35769643124834, "id": 7344, "name": "IDA Ireland"}, {"lat": 53.4013768759059, "long": -6.36323810481856, "id": 7334, "name": "Indoor Arena"}, null, {"lat": 53.396011085448, "long": -6.37375958722472, "id": 1838, "name": "Waterville Road"}, {"lat": 53.3930846748821, "long": -6.37799108182299, "id": 2338, "name": "Waterville Row"}, null, null], "236_9": [{"lat": 53.3943327828838, "long": -6.39185248232822, "id": 4747, "name": "Blanchardstown SC"}, null, null, {"lat": 53.3930899834755, "long": -6.37838182081906, "id": 1816, "name": "Waterville Row"}, {"lat": 53.395626876505, "long": -6.37458624038971, "id": 6171, "name": "Waterville Road"}, {"lat": 53.3989987856554, "long": -6.36941989342407, "id": 4974, "name": "Aquatic Centre"}, {"lat": 53.4019837277497, "long": -6.36226733035871, "id": 4976, "name": "Indoor Arena"}, {"lat": 53.4058768160178, "long": -6.35647750443813, "id": 7126, "name": "IDA Ireland"}, {"lat": 53.4084344681321, "long": -6.35815381158119, "id": 7124, "name": "Ballycoolin  Bus Pk"}, {"lat": 53.4128446843872, "long": -6.36121821689487, "id": 7343, "name": "Corporate Park 2"}, null, {"lat": 53.4092575333429, "long": -6.37099799453746, "id": 4978, "name": "Corporate Park"}, {"lat": 53.411336778609, "long": -6.37782310054472, "id": 4979, "name": "Alexion"}, {"lat": 53.4152032703383, "long": -6.38524305833723, "id": 4986, "name": "Curragh Hall"}, {"lat": 53.4170474415293, "long": -6.38603072502407, "id": 7107, "name": "Ballentree Avenue"}, {"lat": 53.4181504664114, "long": -6.38717750516206, "id": 7102, "name": "Bealing Walk"}, {"lat": 53.4198303804533, "long": -6.39311711572295, "id": 7103, "name": "Cruise Park"}, {"lat": 53.4219165430792, "long": -6.39118774250755, "id": 7104, "name": "Mount Garrett"}, {"lat": 53.4213506902989, "long": -6.38788391150304, "id": 7105, "name": "Mount Eustace"}, {"lat": 53.4209886478085, "long": -6.38570089107588, "id": 7106, "name": "Bellgree Avenue"}, {"lat": 53.4103480974658, "long": -6.41597775306731, "id": 7381, "name": "Damastown Ind Park"}, {"lat": 53.4109786125823, "long": -6.42015115596055, "id": 4742, "name": "Damastown Green"}, {"lat": 53.4116474009291, "long": -6.42314993911754, "id": 4743, "name": "Damastown Drive"}, {"lat": 53.4196069304, "long": -6.4181160960463, "id": 4744, "name": "IBM Campus"}, {"lat": 53.4204690922795, "long": -6.41942316227849, "id": 4745, "name": "Damastown IBM"}]}