{"238_15": [{"lat": 53.4070254952438, "long": -6.39800683658977, "id": 1828, "name": "Lady's Well Road"}, {"lat": 53.4061988263103, "long": -6.3953456019233, "id": 1829, "name": "Parslickstown Ave"}, null, null, {"lat": 53.3943327828838, "long": -6.39185248232822, "id": 4747, "name": "Blanchardstown SC"}, null, null, {"lat": 53.3930899834755, "long": -6.37838182081906, "id": 1816, "name": "Waterville Row"}, {"lat": 53.3960529762381, "long": -6.37485570843332, "id": 1817, "name": "Corduff Cresent"}, {"lat": 53.3975634851834, "long": -6.37225676270842, "id": 1818, "name": "Aquatic Centre"}, {"lat": 53.3996329874712, "long": -6.37440346608328, "id": 1819, "name": "Corduff"}, {"lat": 53.4010807396677, "long": -6.37511526304498, "id": 1820, "name": "Corduff Grove"}, {"lat": 53.4043603607218, "long": -6.3730651331953, "id": 2468, "name": "Blanchardstown Rd N"}, {"lat": 53.4092575333429, "long": -6.37099799453746, "id": 4978, "name": "Corporate Park"}, {"lat": 53.411336778609, "long": -6.37782310054472, "id": 4979, "name": "Alexion"}, {"lat": 53.4152032703383, "long": -6.38524305833723, "id": 4986, "name": "Curragh Hall"}, {"lat": 53.4170474415293, "long": -6.38603072502407, "id": 7107, "name": "Ballentree Avenue"}, {"lat": 53.4181504664114, "long": -6.38717750516206, "id": 7102, "name": "Bealing Walk"}, {"lat": 53.4198303804533, "long": -6.39311711572295, "id": 7103, "name": "Cruise Park"}, {"lat": 53.4219165430792, "long": -6.39118774250755, "id": 7104, "name": "Mount Garrett"}, {"lat": 53.4213506902989, "long": -6.38788391150304, "id": 7105, "name": "Mount Eustace"}, {"lat": 53.4209886478085, "long": -6.38570089107588, "id": 7106, "name": "Bellgree Avenue"}, {"lat": 53.4199426183244, "long": -6.38345358073983, "id": 6005, "name": "Plaza Apartments"}, {"lat": 53.4193454713398, "long": -6.38249828063739, "id": 1546, "name": "Tyrrelstown"}, {"lat": 53.4192687601319, "long": -6.37816811110938, "id": 7072, "name": "Carlton Hotel"}], "238_11": [{"lat": 53.4190813380993, "long": -6.37826551658187, "id": 7073, "name": "Carlton Hotel"}, {"lat": 53.4201410048362, "long": -6.38483026083255, "id": 7097, "name": "Belgree Boulevard"}, {"lat": 53.4213365810099, "long": -6.38817032190169, "id": 7098, "name": "Mount Eustace"}, {"lat": 53.4217821993041, "long": -6.39122290765649, "id": 7099, "name": "Mount Garrett"}, {"lat": 53.4197588677532, "long": -6.39181084800086, "id": 7100, "name": "Rathmore Cresent"}, {"lat": 53.4182584685745, "long": -6.38718846260958, "id": 7101, "name": "Bealing Walk"}, {"lat": 53.4175790793027, "long": -6.38613094865104, "id": 7505, "name": "Ballentree Avenue"}, {"lat": 53.4109617026683, "long": -6.37601723284506, "id": 5071, "name": "Alexion"}, {"lat": 53.4093093811824, "long": -6.37084559393008, "id": 5072, "name": "Corporate Park"}, {"lat": 53.4042156050435, "long": -6.37299545634352, "id": 4980, "name": "Blanchardstown Rd N"}, {"lat": 53.401122996044, "long": -6.3749181454336, "id": 2289, "name": "Blackcourt Road"}, {"lat": 53.4000123492856, "long": -6.37520109047688, "id": 1835, "name": "Corduff"}, {"lat": 53.3980119951745, "long": -6.37153286033092, "id": 1836, "name": "Aquatic Centre"}, {"lat": 53.3958410611648, "long": -6.375134452531, "id": 1837, "name": "Corduff Crescent"}, {"lat": 53.3930846748821, "long": -6.37799108182299, "id": 2338, "name": "Waterville Row"}, null, null, {"lat": 53.3963288599558, "long": -6.3939125127665, "id": 4323, "name": "Whitestown Grove"}, null, null, {"lat": 53.4059077232429, "long": -6.3950858265632, "id": 1826, "name": "Lady's Well Road"}, {"lat": 53.4070419408369, "long": -6.39856273806064, "id": 1827, "name": "Parslickstown Ave"}], "238_12": [{"lat": 53.4190813380993, "long": -6.37826551658187, "id": 7073, "name": "Carlton Hotel"}, {"lat": 53.4201410048362, "long": -6.38483026083255, "id": 7097, "name": "Belgree Boulevard"}, {"lat": 53.4213365810099, "long": -6.38817032190169, "id": 7098, "name": "Mount Eustace"}, {"lat": 53.4217821993041, "long": -6.39122290765649, "id": 7099, "name": "Mount Garrett"}, {"lat": 53.4197588677532, "long": -6.39181084800086, "id": 7100, "name": "Rathmore Cresent"}, {"lat": 53.4182584685745, "long": -6.38718846260958, "id": 7101, "name": "Bealing Walk"}, {"lat": 53.4175790793027, "long": -6.38613094865104, "id": 7505, "name": "Ballentree Avenue"}, {"lat": 53.4109617026683, "long": -6.37601723284506, "id": 5071, "name": "Alexion"}, {"lat": 53.4093093811824, "long": -6.37084559393008, "id": 5072, "name": "Corporate Park"}, {"lat": 53.4042156050435, "long": -6.37299545634352, "id": 4980, "name": "Blanchardstown Rd N"}, {"lat": 53.401122996044, "long": -6.3749181454336, "id": 2289, "name": "Blackcourt Road"}, {"lat": 53.4000123492856, "long": -6.37520109047688, "id": 1835, "name": "Corduff"}, {"lat": 53.3980119951745, "long": -6.37153286033092, "id": 1836, "name": "Aquatic Centre"}, {"lat": 53.3958410611648, "long": -6.375134452531, "id": 1837, "name": "Corduff Crescent"}, {"lat": 53.3930846748821, "long": -6.37799108182299, "id": 2338, "name": "Waterville Row"}, null, null]}