{"239_26": [null, {"lat": 53.3927725776921, "long": -6.39881284842172, "id": 1882, "name": "Millennium Park"}, {"lat": 53.3897483762813, "long": -6.4005050355052, "id": 7379, "name": "Mountview Road"}, {"lat": 53.3866640112341, "long": -6.40173318091218, "id": 4903, "name": "Lohunda Road"}, {"lat": 53.3857448894825, "long": -6.39820466073975, "id": 1883, "name": "Scoil Oilibheir"}, {"lat": 53.3855349556356, "long": -6.39595751987255, "id": 1884, "name": "Porters Road"}, null, {"lat": 53.3829965720365, "long": -6.41045415416235, "id": 1887, "name": "Castlefield Woods"}, {"lat": 53.383173287271, "long": -6.41225148553078, "id": 1888, "name": "Lambourn"}, {"lat": 53.3834166164081, "long": -6.41703786229412, "id": 1889, "name": "Castlefield Court"}, {"lat": 53.3835365679968, "long": -6.42202427927392, "id": 1890, "name": "Clonsilla Station"}, null, null, null, null, {"lat": 53.3585272442133, "long": -6.44906001031817, "id": 2223, "name": "Main Street Lucan"}, {"lat": 53.3572779284342, "long": -6.44975138491198, "id": 2224, "name": "Lucan Village"}, {"lat": 53.3495522066363, "long": -6.45004676330198, "id": 2225, "name": "St Patricks Church"}, {"lat": 53.347236363205, "long": -6.45097189033158, "id": 4620, "name": "Lucan Comm College"}, {"lat": 53.3455700830512, "long": -6.45139276217702, "id": 7563, "name": "Weston Hockey Club"}, {"lat": 53.3445579030423, "long": -6.44958211522961, "id": 3368, "name": "Finnstown Abbey"}, {"lat": 53.3473099255843, "long": -6.44281340516959, "id": 4626, "name": "Arthur Griffith Park"}, {"lat": 53.3491988362237, "long": -6.43948508708762, "id": 4627, "name": "St Finnian's"}, null, {"lat": 53.3460962010465, "long": -6.42022321155944, "id": 4603, "name": "Castle Road"}, {"lat": 53.3444031949396, "long": -6.41861870112443, "id": 4604, "name": "Earlsfort"}, {"lat": 53.3417450847524, "long": -6.40797917237561, "id": 2681, "name": "Fonthill Road"}, {"lat": 53.3435086159192, "long": -6.40744789046171, "id": 4691, "name": "Rowlagh Cresent"}, {"lat": 53.3455923408508, "long": -6.40666431435991, "id": 2682, "name": "St Mark's Grove"}, {"lat": 53.3495094392524, "long": -6.40519639715847, "id": 4690, "name": "Fonthill Retail Park"}, {"lat": 53.3509677182556, "long": -6.40469131774694, "id": 4411, "name": "Shancastle"}, {"lat": 53.3526793490955, "long": -6.39559922812306, "id": 4715, "name": "Liffey Valley SC"}, {"lat": 53.3524180232282, "long": -6.3955489560181, "id": 4795, "name": "Liffey Valley SC"}], "239_28": [{"lat": 53.3524180232282, "long": -6.3955489560181, "id": 4795, "name": "Liffey Valley SC"}, {"lat": 53.3526793490955, "long": -6.39559922812306, "id": 4715, "name": "Liffey Valley SC"}, {"lat": 53.3504093402252, "long": -6.4046070218929, "id": 4688, "name": "Shancastle Park"}, {"lat": 53.3476991984386, "long": -6.40559441371747, "id": 4689, "name": "Fonthill Retail Park"}, {"lat": 53.3452489649688, "long": -6.40652692613804, "id": 4410, "name": "Kennelsfort Road"}, {"lat": 53.3435040069903, "long": -6.40710263290623, "id": 2678, "name": "Rowlagh"}, {"lat": 53.3446569215441, "long": -6.41877452037373, "id": 4630, "name": "Earlsfort"}, {"lat": 53.346622668357, "long": -6.42265196228194, "id": 4631, "name": "Castle Road"}, null, {"lat": 53.3489238790205, "long": -6.43976549945542, "id": 4611, "name": "St Finnian's"}, {"lat": 53.3474491563768, "long": -6.44246287111901, "id": 4612, "name": "Arthur Griffith Park"}, {"lat": 53.34508497603, "long": -6.44450154015426, "id": 4613, "name": "Esker Cottages"}, {"lat": 53.3444704239227, "long": -6.44769290531112, "id": 3370, "name": "Finnstown Abbey"}, {"lat": 53.3452148285973, "long": -6.45172104034757, "id": 7168, "name": "Newcastle Road"}, {"lat": 53.3476964776814, "long": -6.45110540898334, "id": 4616, "name": "Lucan Comm College"}, {"lat": 53.34956392041, "long": -6.45025662824942, "id": 2227, "name": "St Patricks Church"}, {"lat": 53.358605754547, "long": -6.44887687249323, "id": 2229, "name": "Main St Lucan"}, null, null, null, null, {"lat": 53.3836698113979, "long": -6.42054613961033, "id": 1912, "name": "Clonsilla Station"}, {"lat": 53.3835260117031, "long": -6.41715406568756, "id": 1895, "name": "Clonsilla Road"}, {"lat": 53.3833555648486, "long": -6.41379306901692, "id": 1896, "name": "Lambourn"}, {"lat": 53.3831119556836, "long": -6.41034462756554, "id": 1897, "name": "Castlefield Woods"}, {"lat": 53.3854112079392, "long": -6.39611250672928, "id": 1844, "name": "Coolmine Fire Stn"}, null, {"lat": 53.3905818145914, "long": -6.40032343206002, "id": 4493, "name": "Mountview Road"}, {"lat": 53.3931135415902, "long": -6.39876997645991, "id": 4362, "name": "Millennium Park"}, null]}