{"25A_270": [{"lat": 53.347236363205, "long": -6.45097189033158, "id": 4620, "name": "Lucan Comm College"}, {"lat": 53.3455700830512, "long": -6.45139276217702, "id": 7563, "name": "Weston Hockey Club"}, {"lat": 53.3445579030423, "long": -6.44958211522961, "id": 3368, "name": "Finnstown Abbey"}, {"lat": 53.3473099255843, "long": -6.44281340516959, "id": 4626, "name": "Arthur Griffith Park"}, {"lat": 53.3491988362237, "long": -6.43948508708762, "id": 4627, "name": "St Finnian's"}, {"lat": 53.347912581791, "long": -6.43666321908143, "id": 4624, "name": "Lucan Leisure Centre"}, {"lat": 53.3454409603098, "long": -6.43187238260651, "id": 4625, "name": "Griffeen Road"}, {"lat": 53.3433597331953, "long": -6.43217403778817, "id": 4628, "name": "Moy Glas Park"}, {"lat": 53.3404183668927, "long": -6.43063001958676, "id": 4623, "name": "Balgaddy Road"}, {"lat": 53.3398944788227, "long": -6.42633927733307, "id": 4619, "name": "Foxborough Estate"}, {"lat": 53.3417655017221, "long": -6.4237323329679, "id": 4561, "name": "Foxborough Road"}, {"lat": 53.3434890596953, "long": -6.42221194778235, "id": 4629, "name": "Foxborough Hall"}, {"lat": 53.3446569215441, "long": -6.41877452037373, "id": 4630, "name": "Earlsfort"}, {"lat": 53.346622668357, "long": -6.42265196228194, "id": 4631, "name": "Castle Road"}, {"lat": 53.3475857122463, "long": -6.42479431766127, "id": 4632, "name": "Ballyowen Road"}, {"lat": 53.3503767320213, "long": -6.42311419727249, "id": 5164, "name": "Fforster Green"}, {"lat": 53.3549801618223, "long": -6.42187764258238, "id": 4633, "name": "Ballyowen Park"}, {"lat": 53.3593365474227, "long": -6.4243909736557, "id": 2234, "name": "Lucan Retail Park"}, {"lat": 53.3590361767517, "long": -6.4207061273931, "id": 2235, "name": "Hermitage Golf Club"}, {"lat": 53.359144983556, "long": -6.41467742104277, "id": 2236, "name": "Ballyowen Lane"}, null, {"lat": 53.3577604434171, "long": -6.40520380497261, "id": 2238, "name": "Hermitage Clinic"}, {"lat": 53.3575214900468, "long": -6.40279392760982, "id": 5056, "name": "Hermitage Clinic"}, {"lat": 53.3561684706184, "long": -6.39172740046691, "id": 2239, "name": "Liffey Valley SC"}, {"lat": 53.3549292563171, "long": -6.37126802262205, "id": 2241, "name": "Kennelsfort Road"}, {"lat": 53.3539273217415, "long": -6.36700981772815, "id": 2242, "name": "The Oval"}, {"lat": 53.3431789302767, "long": -6.31538083570425, "id": 7435, "name": "Memorial Gardens"}, {"lat": 53.3434371042603, "long": -6.31139066326813, "id": 2722, "name": "Chapelizod Bypass"}, {"lat": 53.3461643943043, "long": -6.29271836681323, "id": 4413, "name": "Heuston Station"}, {"lat": 53.3470736855785, "long": -6.28467627539544, "id": 1476, "name": "Sarsfield Quay"}, {"lat": 53.3463358924194, "long": -6.27838250402172, "id": 7453, "name": "Arran Quay"}, {"lat": 53.3456460888719, "long": -6.27294312668559, "id": 1478, "name": "Four Courts"}, {"lat": 53.3459159600301, "long": -6.26923734421882, "id": 1479, "name": "Ormond Quay Upper"}, {"lat": 53.3470973047636, "long": -6.2614690836473, "id": 315, "name": "Bachelors Walk"}, null, {"lat": 53.3426061451661, "long": -6.25612494578256, "id": 406, "name": "Nassau Street"}, {"lat": 53.340322533493, "long": -6.25546724321503, "id": 4530, "name": "Kildare Street"}, {"lat": 53.3385095343971, "long": -6.25503066600713, "id": 748, "name": "Huguenot Cemetery"}, {"lat": 53.3395130189085, "long": -6.25113016792883, "id": 7390, "name": "Merrion Sq South"}], "25A_273": [{"lat": 53.3390907478423, "long": -6.24991601709792, "id": 7391, "name": "Merrion Sq South"}, {"lat": 53.3398534163799, "long": -6.24737682273893, "id": 493, "name": "Holles Street"}, {"lat": 53.341435583359, "long": -6.25168225233912, "id": 494, "name": "Clare Street"}, {"lat": 53.3435913198155, "long": -6.24974670516899, "id": 495, "name": "Pearse Station"}, {"lat": 53.344846483913, "long": -6.25320984701663, "id": 400, "name": "Shaw Street"}, {"lat": 53.3449966044941, "long": -6.25425507651359, "id": 7588, "name": "Pearse Street"}, {"lat": 53.3464604153825, "long": -6.2609392592254, "id": 7392, "name": "Aston Quay"}, {"lat": 53.3454764728287, "long": -6.26620615548425, "id": 312, "name": "Wellington Quay"}, {"lat": 53.3450180037747, "long": -6.27426019093106, "id": 1444, "name": "Merchant's Quay"}, {"lat": 53.3456784102547, "long": -6.27828883961715, "id": 1445, "name": "Usher's Quay"}, {"lat": 53.3465291195087, "long": -6.2861851185728, "id": 4407, "name": "Victoria Quay"}, {"lat": 53.3458840623229, "long": -6.29385604999962, "id": 2637, "name": "Heuston Station"}, {"lat": 53.3432718551678, "long": -6.31051108491757, "id": 2721, "name": "Chapelizod Bypass"}, {"lat": 53.3429541422341, "long": -6.3153746792035, "id": 7012, "name": "Memorial Gardens"}, null, {"lat": 53.3532737532198, "long": -6.36457116457726, "id": 2201, "name": "Palmerstown Drive"}, {"lat": 53.3540614069964, "long": -6.36892756671869, "id": 7239, "name": "The Oval"}, {"lat": 53.3547555333603, "long": -6.37171030536814, "id": 4401, "name": "Kennelsfort"}, {"lat": 53.3557135565417, "long": -6.39198489791745, "id": 2213, "name": "Liffey Valley SC"}, {"lat": 53.3560900353088, "long": -6.39993297587383, "id": 2214, "name": "Clarion Hotel"}, {"lat": 53.3582062275912, "long": -6.40897316569564, "id": 2215, "name": "St Loman's Hospital"}, {"lat": 53.3588652801417, "long": -6.41594982438278, "id": 2216, "name": "Ballyowen Lane"}, {"lat": 53.3577587404075, "long": -6.4233374329506, "id": 4599, "name": "Hermitage Valley"}, {"lat": 53.3557559200598, "long": -6.42208934699274, "id": 4601, "name": "Ballyowen Park"}, {"lat": 53.3508988211284, "long": -6.42249407625997, "id": 5058, "name": "Ballyowen Road"}, {"lat": 53.3476264673565, "long": -6.42447739338821, "id": 4602, "name": "The Penny Hill"}, {"lat": 53.3460962010465, "long": -6.42022321155944, "id": 4603, "name": "Castle Road"}, {"lat": 53.3444031949396, "long": -6.41861870112443, "id": 4604, "name": "Earlsfort"}, {"lat": 53.3433333620054, "long": -6.42199241806972, "id": 4605, "name": "Foxborough Hall"}, {"lat": 53.3406580869705, "long": -6.42426876139013, "id": 4562, "name": "Foxborough Road"}, {"lat": 53.3400524653456, "long": -6.42741471356989, "id": 7386, "name": "Foxborough Park"}, {"lat": 53.3403411667708, "long": -6.43022738188951, "id": 4607, "name": "Moy Glas Dene"}, {"lat": 53.3424090532845, "long": -6.43232906341998, "id": 4608, "name": "Griffeen Road"}, {"lat": 53.3459394847079, "long": -6.43287541038994, "id": 4609, "name": "Elm Wood"}, {"lat": 53.3479417579436, "long": -6.43751830089687, "id": 4610, "name": "Ballyowen Celtic FC"}, {"lat": 53.3489238790205, "long": -6.43976549945542, "id": 4611, "name": "St Finnian's"}, {"lat": 53.3474491563768, "long": -6.44246287111901, "id": 4612, "name": "Arthur Griffith Park"}, {"lat": 53.34508497603, "long": -6.44450154015426, "id": 4613, "name": "Esker Cottages"}, {"lat": 53.3444704239227, "long": -6.44769290531112, "id": 3370, "name": "Finnstown Abbey"}, {"lat": 53.3452148285973, "long": -6.45172104034757, "id": 7168, "name": "Newcastle Road"}, {"lat": 53.3476964776814, "long": -6.45110540898334, "id": 4616, "name": "Lucan Comm College"}]}