{"270_42": [null, {"lat": 53.3963288599558, "long": -6.3939125127665, "id": 4323, "name": "Whitestown Grove"}, {"lat": 53.4040177930608, "long": -6.42663563137066, "id": 4324, "name": "Littlepace Gallops"}, {"lat": 53.4035714974143, "long": -6.42346366572206, "id": 4769, "name": "The Grove"}, {"lat": 53.4039694406902, "long": -6.41821505404256, "id": 4770, "name": "Deerhaven"}, {"lat": 53.4035321061144, "long": -6.41438109242276, "id": 4765, "name": "Huntstown Wood"}, {"lat": 53.4038730130108, "long": -6.41839911030624, "id": 4766, "name": "Deerhaven"}, {"lat": 53.4034730766314, "long": -6.42349738438914, "id": 4767, "name": "The Grove"}, {"lat": 53.4037970389348, "long": -6.42625274112136, "id": 4768, "name": "Littlepace Park"}, {"lat": 53.4085874952729, "long": -6.42897891690182, "id": 4325, "name": "Littlepace"}, {"lat": 53.4104810118978, "long": -6.44247719736312, "id": 3328, "name": "Clonee Village"}, {"lat": 53.4139640720478, "long": -6.44905927880425, "id": 3329, "name": "Loughsallagh"}, {"lat": 53.4149242899114, "long": -6.45240917797432, "id": 3330, "name": "Clonee Sawmills"}, {"lat": 53.415954735406, "long": -6.46260174067545, "id": 3331, "name": "Dunboyne Station"}, {"lat": 53.4170352983603, "long": -6.46835487473712, "id": 3351, "name": "St Peter's College"}, {"lat": 53.4183788913464, "long": -6.47291032928897, "id": 3332, "name": "Dunboyne NS"}, {"lat": 53.419502523402, "long": -6.47432945787378, "id": 3333, "name": "Dunboyne Village"}], "270_44": [{"lat": 53.419502523402, "long": -6.47432945787378, "id": 3333, "name": "Dunboyne Village"}, {"lat": 53.4180549772473, "long": -6.4714776356452, "id": 3334, "name": "Dunboyne NS"}, {"lat": 53.4170777086963, "long": -6.46815777247699, "id": 3352, "name": "St Peter's College"}, {"lat": 53.4160251365625, "long": -6.45969568841962, "id": 3335, "name": "Mill View"}, {"lat": 53.4149631651351, "long": -6.45194141009732, "id": 3336, "name": "Clonee Sawmills"}, {"lat": 53.4140798813531, "long": -6.44897984739847, "id": 3337, "name": "Loughsallagh"}, {"lat": 53.4106014848004, "long": -6.44206665519184, "id": 3338, "name": "Clonee Village"}, {"lat": 53.4103970389321, "long": -6.43742609869673, "id": 3339, "name": "Summerseat Court"}, {"lat": 53.4086679506828, "long": -6.42894586872246, "id": 3340, "name": "Littlepace"}, {"lat": 53.4040177930608, "long": -6.42663563137066, "id": 4324, "name": "Littlepace Gallops"}, {"lat": 53.4035714974143, "long": -6.42346366572206, "id": 4769, "name": "The Grove"}, {"lat": 53.4039694406902, "long": -6.41821505404256, "id": 4770, "name": "Deerhaven"}, {"lat": 53.4035321061144, "long": -6.41438109242276, "id": 4765, "name": "Huntstown Wood"}, {"lat": 53.4038730130108, "long": -6.41839911030624, "id": 4766, "name": "Deerhaven"}, {"lat": 53.4034730766314, "long": -6.42349738438914, "id": 4767, "name": "The Grove"}, {"lat": 53.4037970389348, "long": -6.42625274112136, "id": 4768, "name": "Littlepace Park"}, null, null]}