{"27B_34": [{"lat": 53.4177226807655, "long": -6.27864416912571, "id": 324, "name": "Harristown"}, null, null, null, {"lat": 53.4134569583756, "long": -6.23883046648288, "id": 1634, "name": "Collinstown Park"}, {"lat": 53.4117049122348, "long": -6.23887277719418, "id": 1635, "name": "Woodland Ind Est"}, {"lat": 53.4082527144955, "long": -6.23760147278675, "id": 1636, "name": "Turnapin Lane"}, {"lat": 53.404039651401, "long": -6.24019713579677, "id": 1637, "name": "Santry Close"}, {"lat": 53.4017493779661, "long": -6.24214152972318, "id": 1638, "name": "Morton Stadium"}, {"lat": 53.3981583599711, "long": -6.24120680842807, "id": 992, "name": "Coolock Lane"}, {"lat": 53.3974093697463, "long": -6.23248556787174, "id": 7044, "name": "Aulden Grange"}, {"lat": 53.3977025969998, "long": -6.22922517485573, "id": 993, "name": "Astro Park"}, {"lat": 53.3971670149031, "long": -6.22402924061357, "id": 5060, "name": "Dundaniel Road"}, {"lat": 53.3956965209063, "long": -6.2248724258515, "id": 5061, "name": "Kilbarron Drive"}, {"lat": 53.3954889982952, "long": -6.22784342643992, "id": 1231, "name": "Castletimon Road"}, {"lat": 53.3952854835275, "long": -6.23048341001443, "id": 1232, "name": "Castletimon Park"}, {"lat": 53.3943619874017, "long": -6.23124350090553, "id": 1233, "name": "Castletimon Drive"}, {"lat": 53.3946878729395, "long": -6.23261339665838, "id": 1234, "name": "Ballyshannon Avenue"}, {"lat": 53.3954603017448, "long": -6.2295438404062, "id": 7358, "name": "Castletimon Park"}, {"lat": 53.3947366847022, "long": -6.22560408418948, "id": 1235, "name": "Kilbarron Road"}, {"lat": 53.3934573359116, "long": -6.22237931759755, "id": 1251, "name": "St Luke's Church"}, {"lat": 53.3899459507387, "long": -6.22439004685399, "id": 253, "name": "Beaumont Hospital"}, null, {"lat": 53.3930727351748, "long": -6.22069621903409, "id": 7130, "name": "Cromcastle Green"}, {"lat": 53.3926786800006, "long": -6.2189834723011, "id": 1237, "name": "Cromcastle Avenue"}, {"lat": 53.3915662233617, "long": -6.21491005695044, "id": 1238, "name": "Kilmore Avenue"}, {"lat": 53.3890041898569, "long": -6.21488195784464, "id": 1239, "name": "St John of Gods NS"}, {"lat": 53.3869761610618, "long": -6.21450075590271, "id": 247, "name": "Ardlea Road"}, {"lat": 53.3868184280309, "long": -6.21116973233947, "id": 1240, "name": "Maryfield Crescent"}, {"lat": 53.3858794293715, "long": -6.20908930804691, "id": 1241, "name": "Chanel Avenue"}, {"lat": 53.3844919489066, "long": -6.2070729228125, "id": 1242, "name": "Ardbeg Road"}, {"lat": 53.3826814602086, "long": -6.2062169636168, "id": 1277, "name": "Mornington Grove"}, {"lat": 53.3813021270913, "long": -6.2083343920684, "id": 1219, "name": "Danieli Road"}, {"lat": 53.3787625062963, "long": -6.21219890153812, "id": 1220, "name": "Killester Avenue"}, {"lat": 53.3768165000746, "long": -6.21609825408432, "id": 1221, "name": "Mayfield Park"}, {"lat": 53.3747192481277, "long": -6.21950756213928, "id": 664, "name": "Donnycarney Church"}, {"lat": 53.3724663177962, "long": -6.22212646122617, "id": 665, "name": "Casino Park"}, {"lat": 53.3702331241242, "long": -6.22426334784648, "id": 666, "name": "Mount Temple School"}, {"lat": 53.3679816454687, "long": -6.22698684651136, "id": 667, "name": "Brian Road"}, {"lat": 53.3645749808616, "long": -6.2293973168947, "id": 668, "name": "Marino Crescent Park"}, {"lat": 53.3636380024156, "long": -6.23349323029591, "id": 614, "name": "Fairview"}, {"lat": 53.3619064164568, "long": -6.23735129893029, "id": 615, "name": "Annesley Bridge"}, {"lat": 53.3598447138057, "long": -6.23955489630255, "id": 616, "name": "Nth Strand Fire Stn"}, {"lat": 53.3578945210736, "long": -6.24200909637442, "id": 617, "name": "Strandville Avenue"}, {"lat": 53.3561011779693, "long": -6.2447420676032, "id": 618, "name": "Newcomen Bridge"}, {"lat": 53.354044625043, "long": -6.24730533351979, "id": 619, "name": "Amiens Street"}, {"lat": 53.3528581377187, "long": -6.24852575947702, "id": 675, "name": "Buckingham St Lower"}, {"lat": 53.3505207924011, "long": -6.250334044096, "id": 4415, "name": "Connolly Train Stn"}, {"lat": 53.348059998093, "long": -6.25599245267002, "id": 303, "name": "Eden Quay"}], "27B_35": [{"lat": 53.4177226807655, "long": -6.27864416912571, "id": 324, "name": "Harristown"}, null, {"lat": 53.4134569583756, "long": -6.23883046648288, "id": 1634, "name": "Collinstown Park"}, {"lat": 53.4117049122348, "long": -6.23887277719418, "id": 1635, "name": "Woodland Ind Est"}, {"lat": 53.4082527144955, "long": -6.23760147278675, "id": 1636, "name": "Turnapin Lane"}, {"lat": 53.404039651401, "long": -6.24019713579677, "id": 1637, "name": "Santry Close"}, {"lat": 53.4017493779661, "long": -6.24214152972318, "id": 1638, "name": "Morton Stadium"}, {"lat": 53.3981583599711, "long": -6.24120680842807, "id": 992, "name": "Coolock Lane"}, {"lat": 53.3974093697463, "long": -6.23248556787174, "id": 7044, "name": "Aulden Grange"}, {"lat": 53.3977025969998, "long": -6.22922517485573, "id": 993, "name": "Astro Park"}, {"lat": 53.3971670149031, "long": -6.22402924061357, "id": 5060, "name": "Dundaniel Road"}, {"lat": 53.3956965209063, "long": -6.2248724258515, "id": 5061, "name": "Kilbarron Drive"}, {"lat": 53.3954889982952, "long": -6.22784342643992, "id": 1231, "name": "Castletimon Road"}, {"lat": 53.3952854835275, "long": -6.23048341001443, "id": 1232, "name": "Castletimon Park"}, {"lat": 53.3943619874017, "long": -6.23124350090553, "id": 1233, "name": "Castletimon Drive"}, {"lat": 53.3946878729395, "long": -6.23261339665838, "id": 1234, "name": "Ballyshannon Avenue"}, {"lat": 53.3954603017448, "long": -6.2295438404062, "id": 7358, "name": "Castletimon Park"}, {"lat": 53.3947366847022, "long": -6.22560408418948, "id": 1235, "name": "Kilbarron Road"}, {"lat": 53.3934573359116, "long": -6.22237931759755, "id": 1251, "name": "St Luke's Church"}, {"lat": 53.3930727351748, "long": -6.22069621903409, "id": 7130, "name": "Cromcastle Green"}, {"lat": 53.3926786800006, "long": -6.2189834723011, "id": 1237, "name": "Cromcastle Avenue"}, {"lat": 53.3915662233617, "long": -6.21491005695044, "id": 1238, "name": "Kilmore Avenue"}, {"lat": 53.3890041898569, "long": -6.21488195784464, "id": 1239, "name": "St John of Gods NS"}, {"lat": 53.3869761610618, "long": -6.21450075590271, "id": 247, "name": "Ardlea Road"}, {"lat": 53.3868184280309, "long": -6.21116973233947, "id": 1240, "name": "Maryfield Crescent"}, {"lat": 53.3858794293715, "long": -6.20908930804691, "id": 1241, "name": "Chanel Avenue"}, {"lat": 53.3844919489066, "long": -6.2070729228125, "id": 1242, "name": "Ardbeg Road"}, {"lat": 53.3826814602086, "long": -6.2062169636168, "id": 1277, "name": "Mornington Grove"}, {"lat": 53.3813021270913, "long": -6.2083343920684, "id": 1219, "name": "Danieli Road"}, {"lat": 53.3787625062963, "long": -6.21219890153812, "id": 1220, "name": "Killester Avenue"}, {"lat": 53.3768165000746, "long": -6.21609825408432, "id": 1221, "name": "Mayfield Park"}, {"lat": 53.3747192481277, "long": -6.21950756213928, "id": 664, "name": "Donnycarney Church"}, {"lat": 53.3724663177962, "long": -6.22212646122617, "id": 665, "name": "Casino Park"}, {"lat": 53.3702331241242, "long": -6.22426334784648, "id": 666, "name": "Mount Temple School"}, {"lat": 53.3679816454687, "long": -6.22698684651136, "id": 667, "name": "Brian Road"}, {"lat": 53.3645749808616, "long": -6.2293973168947, "id": 668, "name": "Marino Crescent Park"}, {"lat": 53.3636380024156, "long": -6.23349323029591, "id": 614, "name": "Fairview"}, {"lat": 53.3619064164568, "long": -6.23735129893029, "id": 615, "name": "Annesley Bridge"}, {"lat": 53.3598447138057, "long": -6.23955489630255, "id": 616, "name": "Nth Strand Fire Stn"}, {"lat": 53.3578945210736, "long": -6.24200909637442, "id": 617, "name": "Strandville Avenue"}, {"lat": 53.3561011779693, "long": -6.2447420676032, "id": 618, "name": "Newcomen Bridge"}, {"lat": 53.354044625043, "long": -6.24730533351979, "id": 619, "name": "Amiens Street"}, {"lat": 53.3528581377187, "long": -6.24852575947702, "id": 675, "name": "Buckingham St Lower"}, {"lat": 53.3505207924011, "long": -6.250334044096, "id": 4415, "name": "Connolly Train Stn"}, {"lat": 53.348059998093, "long": -6.25599245267002, "id": 303, "name": "Eden Quay"}], "27B_23": [{"lat": 53.348299240861, "long": -6.25575737577462, "id": 300, "name": "Liberty Hall"}, null, {"lat": 53.3505260754016, "long": -6.25069434322377, "id": 497, "name": "Connolly"}, {"lat": 53.3535348728268, "long": -6.24809240079494, "id": 515, "name": "Portland Row"}, {"lat": 53.3556839194156, "long": -6.24570568436261, "id": 516, "name": "North Strand Road"}, {"lat": 53.357680128025, "long": -6.2427090265571, "id": 4384, "name": "Bayview Avenue"}, {"lat": 53.3603387601192, "long": -6.23953452865892, "id": 519, "name": "North Strand Road"}, {"lat": 53.3616370470509, "long": -6.23797846068548, "id": 521, "name": "Annesley Bridge Road"}, {"lat": 53.3632889490314, "long": -6.23541597469792, "id": 522, "name": "Fairview"}, null, {"lat": 53.3642854537147, "long": -6.23169333166141, "id": 523, "name": "Marino College"}, {"lat": 53.3663170047536, "long": -6.2286789053178, "id": 669, "name": "Malahide Road"}, {"lat": 53.3689561148113, "long": -6.22602966389205, "id": 670, "name": "Mount Temple School"}, {"lat": 53.3707168419713, "long": -6.22415305315512, "id": 671, "name": "Nazareth House"}, {"lat": 53.3734663500314, "long": -6.22107782075331, "id": 672, "name": "Donnycarney Road"}, {"lat": 53.3749644657493, "long": -6.21967769392797, "id": 4382, "name": "Donnycarney Church"}, {"lat": 53.3780410337923, "long": -6.2144387216401, "id": 1196, "name": "Elm Mount Road"}, {"lat": 53.3792322771541, "long": -6.21175833300337, "id": 1197, "name": "Killester Avenue"}, {"lat": 53.3825121951938, "long": -6.20691559067275, "id": 1198, "name": "Mornington Grove"}, {"lat": 53.3840661618381, "long": -6.20685028183386, "id": 1222, "name": "Ardlea Road"}, {"lat": 53.3852506198797, "long": -6.20851435239846, "id": 1223, "name": "Chanel Avenue"}, {"lat": 53.3866441577972, "long": -6.21093649115348, "id": 1224, "name": "Maryfield Crescent"}, {"lat": 53.386859379217, "long": -6.21390426931247, "id": 1225, "name": "Maryfield Drive"}, {"lat": 53.3885824619193, "long": -6.21492967615912, "id": 1226, "name": "Ardmore Drive"}, {"lat": 53.3911373107668, "long": -6.21507836605143, "id": 1227, "name": "Castlekevin Road"}, {"lat": 53.3924289765026, "long": -6.21851273726681, "id": 1228, "name": "Kilbarron Road"}, {"lat": 53.3929072416209, "long": -6.22044750297315, "id": 1244, "name": "Cromcastle Green"}, {"lat": 53.3902652984461, "long": -6.22410611366832, "id": 254, "name": "Beaumont Hospital"}, {"lat": 53.3934932334641, "long": -6.22297928856429, "id": 1246, "name": "Kilbarron Park"}, {"lat": 53.3943116011738, "long": -6.22542628929809, "id": 1229, "name": "Kilbarron Drive"}, {"lat": 53.3954889982952, "long": -6.22784342643992, "id": 1231, "name": "Castletimon Road"}, {"lat": 53.3952854835275, "long": -6.23048341001443, "id": 1232, "name": "Castletimon Park"}, {"lat": 53.3943619874017, "long": -6.23124350090553, "id": 1233, "name": "Castletimon Drive"}, {"lat": 53.3946878729395, "long": -6.23261339665838, "id": 1234, "name": "Ballyshannon Avenue"}, {"lat": 53.3954603017448, "long": -6.2295438404062, "id": 7358, "name": "Castletimon Park"}, {"lat": 53.3957088554233, "long": -6.22509747426004, "id": 5174, "name": "Dundaniel Road"}, {"lat": 53.3972417816507, "long": -6.22422162082612, "id": 6078, "name": "Oscar Traynor Rd"}, {"lat": 53.3975490018296, "long": -6.22917140050016, "id": 7112, "name": "Astro Park"}, {"lat": 53.3969960428868, "long": -6.23492379932207, "id": 972, "name": "Aulden Grange"}, {"lat": 53.4010922757173, "long": -6.2432965687036, "id": 1625, "name": "Morton Stadium"}, {"lat": 53.4041676234164, "long": -6.24034225748838, "id": 1626, "name": "Santry Close"}, {"lat": 53.4082479479251, "long": -6.23788746500041, "id": 1627, "name": "Santry Retail Park"}, {"lat": 53.4137122404046, "long": -6.23907566145023, "id": 1628, "name": "Collinstown Park"}, {"lat": 53.4169466323651, "long": -6.23898714424291, "id": 1629, "name": "Dardistown Cemetery"}, {"lat": 53.4180773132492, "long": -6.27768199427661, "id": 6234, "name": "Old Airport Road"}, {"lat": 53.4173526533912, "long": -6.27853875647111, "id": 332, "name": "Harristown"}], "27B_40": [{"lat": 53.348299240861, "long": -6.25575737577462, "id": 300, "name": "Liberty Hall"}, null, {"lat": 53.3505260754016, "long": -6.25069434322377, "id": 497, "name": "Connolly"}, {"lat": 53.3535348728268, "long": -6.24809240079494, "id": 515, "name": "Portland Row"}, {"lat": 53.3556839194156, "long": -6.24570568436261, "id": 516, "name": "North Strand Road"}, {"lat": 53.357680128025, "long": -6.2427090265571, "id": 4384, "name": "Bayview Avenue"}, {"lat": 53.3603387601192, "long": -6.23953452865892, "id": 519, "name": "North Strand Road"}, {"lat": 53.3616370470509, "long": -6.23797846068548, "id": 521, "name": "Annesley Bridge Road"}, {"lat": 53.3632889490314, "long": -6.23541597469792, "id": 522, "name": "Fairview"}, null, {"lat": 53.3642854537147, "long": -6.23169333166141, "id": 523, "name": "Marino College"}, {"lat": 53.3663170047536, "long": -6.2286789053178, "id": 669, "name": "Malahide Road"}, {"lat": 53.3689561148113, "long": -6.22602966389205, "id": 670, "name": "Mount Temple School"}, {"lat": 53.3707168419713, "long": -6.22415305315512, "id": 671, "name": "Nazareth House"}, {"lat": 53.3734663500314, "long": -6.22107782075331, "id": 672, "name": "Donnycarney Road"}, {"lat": 53.3749644657493, "long": -6.21967769392797, "id": 4382, "name": "Donnycarney Church"}, {"lat": 53.3780410337923, "long": -6.2144387216401, "id": 1196, "name": "Elm Mount Road"}, {"lat": 53.3792322771541, "long": -6.21175833300337, "id": 1197, "name": "Killester Avenue"}, {"lat": 53.3825121951938, "long": -6.20691559067275, "id": 1198, "name": "Mornington Grove"}, {"lat": 53.3840661618381, "long": -6.20685028183386, "id": 1222, "name": "Ardlea Road"}, {"lat": 53.3852506198797, "long": -6.20851435239846, "id": 1223, "name": "Chanel Avenue"}, {"lat": 53.3866441577972, "long": -6.21093649115348, "id": 1224, "name": "Maryfield Crescent"}, {"lat": 53.386859379217, "long": -6.21390426931247, "id": 1225, "name": "Maryfield Drive"}, {"lat": 53.3885824619193, "long": -6.21492967615912, "id": 1226, "name": "Ardmore Drive"}, {"lat": 53.3911373107668, "long": -6.21507836605143, "id": 1227, "name": "Castlekevin Road"}, {"lat": 53.3924289765026, "long": -6.21851273726681, "id": 1228, "name": "Kilbarron Road"}, {"lat": 53.3929072416209, "long": -6.22044750297315, "id": 1244, "name": "Cromcastle Green"}, {"lat": 53.3934932334641, "long": -6.22297928856429, "id": 1246, "name": "Kilbarron Park"}, {"lat": 53.3943116011738, "long": -6.22542628929809, "id": 1229, "name": "Kilbarron Drive"}, {"lat": 53.3954889982952, "long": -6.22784342643992, "id": 1231, "name": "Castletimon Road"}, {"lat": 53.3952854835275, "long": -6.23048341001443, "id": 1232, "name": "Castletimon Park"}, {"lat": 53.3943619874017, "long": -6.23124350090553, "id": 1233, "name": "Castletimon Drive"}, {"lat": 53.3946878729395, "long": -6.23261339665838, "id": 1234, "name": "Ballyshannon Avenue"}, {"lat": 53.3954603017448, "long": -6.2295438404062, "id": 7358, "name": "Castletimon Park"}, {"lat": 53.3957088554233, "long": -6.22509747426004, "id": 5174, "name": "Dundaniel Road"}, {"lat": 53.3972417816507, "long": -6.22422162082612, "id": 6078, "name": "Oscar Traynor Rd"}, {"lat": 53.3975490018296, "long": -6.22917140050016, "id": 7112, "name": "Astro Park"}, {"lat": 53.3969960428868, "long": -6.23492379932207, "id": 972, "name": "Aulden Grange"}, {"lat": 53.4010922757173, "long": -6.2432965687036, "id": 1625, "name": "Morton Stadium"}, {"lat": 53.4041676234164, "long": -6.24034225748838, "id": 1626, "name": "Santry Close"}, {"lat": 53.4082479479251, "long": -6.23788746500041, "id": 1627, "name": "Santry Retail Park"}, {"lat": 53.4137122404046, "long": -6.23907566145023, "id": 1628, "name": "Collinstown Park"}, {"lat": 53.4169466323651, "long": -6.23898714424291, "id": 1629, "name": "Dardistown Cemetery"}, {"lat": 53.4180773132492, "long": -6.27768199427661, "id": 6234, "name": "Old Airport Road"}, {"lat": 53.4173526533912, "long": -6.27853875647111, "id": 332, "name": "Harristown"}], "27B_38": [{"lat": 53.3993550470663, "long": -6.22187780324987, "id": 1176, "name": "Coolock Lane Park"}, {"lat": 53.4008973630857, "long": -6.22525748280842, "id": 1177, "name": "Clonshaugh Ind Est W"}, {"lat": 53.4034534096934, "long": -6.21884924282628, "id": 1178, "name": "Clonshaugh Ind Est N"}, {"lat": 53.3999311495941, "long": -6.21892118309895, "id": 1179, "name": "Clonshaugh Ind Est E"}, {"lat": 53.3915662233617, "long": -6.21491005695044, "id": 1238, "name": "Kilmore Avenue"}, {"lat": 53.3890041898569, "long": -6.21488195784464, "id": 1239, "name": "St John of Gods NS"}, {"lat": 53.3869761610618, "long": -6.21450075590271, "id": 247, "name": "Ardlea Road"}, {"lat": 53.3868184280309, "long": -6.21116973233947, "id": 1240, "name": "Maryfield Crescent"}, {"lat": 53.3858794293715, "long": -6.20908930804691, "id": 1241, "name": "Chanel Avenue"}, {"lat": 53.3844919489066, "long": -6.2070729228125, "id": 1242, "name": "Ardbeg Road"}, {"lat": 53.3826814602086, "long": -6.2062169636168, "id": 1277, "name": "Mornington Grove"}, {"lat": 53.3813021270913, "long": -6.2083343920684, "id": 1219, "name": "Danieli Road"}, {"lat": 53.3787625062963, "long": -6.21219890153812, "id": 1220, "name": "Killester Avenue"}, {"lat": 53.3768165000746, "long": -6.21609825408432, "id": 1221, "name": "Mayfield Park"}, {"lat": 53.3747192481277, "long": -6.21950756213928, "id": 664, "name": "Donnycarney Church"}, {"lat": 53.3724663177962, "long": -6.22212646122617, "id": 665, "name": "Casino Park"}, {"lat": 53.3702331241242, "long": -6.22426334784648, "id": 666, "name": "Mount Temple School"}, {"lat": 53.3679816454687, "long": -6.22698684651136, "id": 667, "name": "Brian Road"}, {"lat": 53.3645749808616, "long": -6.2293973168947, "id": 668, "name": "Marino Crescent Park"}, {"lat": 53.3636380024156, "long": -6.23349323029591, "id": 614, "name": "Fairview"}, {"lat": 53.3619064164568, "long": -6.23735129893029, "id": 615, "name": "Annesley Bridge"}, {"lat": 53.3598447138057, "long": -6.23955489630255, "id": 616, "name": "Nth Strand Fire Stn"}, {"lat": 53.3578945210736, "long": -6.24200909637442, "id": 617, "name": "Strandville Avenue"}, {"lat": 53.3561011779693, "long": -6.2447420676032, "id": 618, "name": "Newcomen Bridge"}, {"lat": 53.354044625043, "long": -6.24730533351979, "id": 619, "name": "Amiens Street"}, {"lat": 53.3528581377187, "long": -6.24852575947702, "id": 675, "name": "Buckingham St Lower"}, {"lat": 53.3505207924011, "long": -6.250334044096, "id": 4415, "name": "Connolly Train Stn"}, {"lat": 53.348059998093, "long": -6.25599245267002, "id": 303, "name": "Eden Quay"}], "27B_26": [{"lat": 53.348299240861, "long": -6.25575737577462, "id": 300, "name": "Liberty Hall"}, null, {"lat": 53.3505260754016, "long": -6.25069434322377, "id": 497, "name": "Connolly"}, {"lat": 53.3535348728268, "long": -6.24809240079494, "id": 515, "name": "Portland Row"}, {"lat": 53.3556839194156, "long": -6.24570568436261, "id": 516, "name": "North Strand Road"}, {"lat": 53.357680128025, "long": -6.2427090265571, "id": 4384, "name": "Bayview Avenue"}, {"lat": 53.3603387601192, "long": -6.23953452865892, "id": 519, "name": "North Strand Road"}, {"lat": 53.3616370470509, "long": -6.23797846068548, "id": 521, "name": "Annesley Bridge Road"}, {"lat": 53.3632889490314, "long": -6.23541597469792, "id": 522, "name": "Fairview"}, null, {"lat": 53.3642854537147, "long": -6.23169333166141, "id": 523, "name": "Marino College"}, {"lat": 53.3663170047536, "long": -6.2286789053178, "id": 669, "name": "Malahide Road"}, {"lat": 53.3689561148113, "long": -6.22602966389205, "id": 670, "name": "Mount Temple School"}, {"lat": 53.3707168419713, "long": -6.22415305315512, "id": 671, "name": "Nazareth House"}, {"lat": 53.3734663500314, "long": -6.22107782075331, "id": 672, "name": "Donnycarney Road"}, {"lat": 53.3749644657493, "long": -6.21967769392797, "id": 4382, "name": "Donnycarney Church"}, {"lat": 53.3780410337923, "long": -6.2144387216401, "id": 1196, "name": "Elm Mount Road"}, {"lat": 53.3792322771541, "long": -6.21175833300337, "id": 1197, "name": "Killester Avenue"}, {"lat": 53.3825121951938, "long": -6.20691559067275, "id": 1198, "name": "Mornington Grove"}, {"lat": 53.3840661618381, "long": -6.20685028183386, "id": 1222, "name": "Ardlea Road"}, {"lat": 53.3852506198797, "long": -6.20851435239846, "id": 1223, "name": "Chanel Avenue"}, {"lat": 53.3866441577972, "long": -6.21093649115348, "id": 1224, "name": "Maryfield Crescent"}, {"lat": 53.386859379217, "long": -6.21390426931247, "id": 1225, "name": "Maryfield Drive"}, {"lat": 53.3885824619193, "long": -6.21492967615912, "id": 1226, "name": "Ardmore Drive"}, {"lat": 53.3911373107668, "long": -6.21507836605143, "id": 1227, "name": "Castlekevin Road"}, {"lat": 53.3924289765026, "long": -6.21851273726681, "id": 1228, "name": "Kilbarron Road"}, {"lat": 53.3929072416209, "long": -6.22044750297315, "id": 1244, "name": "Cromcastle Green"}, {"lat": 53.3902652984461, "long": -6.22410611366832, "id": 254, "name": "Beaumont Hospital"}, {"lat": 53.3934932334641, "long": -6.22297928856429, "id": 1246, "name": "Kilbarron Park"}, {"lat": 53.3943116011738, "long": -6.22542628929809, "id": 1229, "name": "Kilbarron Drive"}, {"lat": 53.3954889982952, "long": -6.22784342643992, "id": 1231, "name": "Castletimon Road"}, {"lat": 53.3952854835275, "long": -6.23048341001443, "id": 1232, "name": "Castletimon Park"}, {"lat": 53.3943619874017, "long": -6.23124350090553, "id": 1233, "name": "Castletimon Drive"}], "27B_27": [{"lat": 53.348299240861, "long": -6.25575737577462, "id": 300, "name": "Liberty Hall"}, null, {"lat": 53.3505260754016, "long": -6.25069434322377, "id": 497, "name": "Connolly"}, {"lat": 53.3535348728268, "long": -6.24809240079494, "id": 515, "name": "Portland Row"}, {"lat": 53.3556839194156, "long": -6.24570568436261, "id": 516, "name": "North Strand Road"}, {"lat": 53.357680128025, "long": -6.2427090265571, "id": 4384, "name": "Bayview Avenue"}, {"lat": 53.3603387601192, "long": -6.23953452865892, "id": 519, "name": "North Strand Road"}, {"lat": 53.3616370470509, "long": -6.23797846068548, "id": 521, "name": "Annesley Bridge Road"}, {"lat": 53.3632889490314, "long": -6.23541597469792, "id": 522, "name": "Fairview"}, null, {"lat": 53.3642854537147, "long": -6.23169333166141, "id": 523, "name": "Marino College"}, {"lat": 53.3663170047536, "long": -6.2286789053178, "id": 669, "name": "Malahide Road"}, {"lat": 53.3689561148113, "long": -6.22602966389205, "id": 670, "name": "Mount Temple School"}, {"lat": 53.3707168419713, "long": -6.22415305315512, "id": 671, "name": "Nazareth House"}, {"lat": 53.3734663500314, "long": -6.22107782075331, "id": 672, "name": "Donnycarney Road"}, {"lat": 53.3749644657493, "long": -6.21967769392797, "id": 4382, "name": "Donnycarney Church"}, {"lat": 53.3780410337923, "long": -6.2144387216401, "id": 1196, "name": "Elm Mount Road"}, {"lat": 53.3792322771541, "long": -6.21175833300337, "id": 1197, "name": "Killester Avenue"}, {"lat": 53.3825121951938, "long": -6.20691559067275, "id": 1198, "name": "Mornington Grove"}, {"lat": 53.3840661618381, "long": -6.20685028183386, "id": 1222, "name": "Ardlea Road"}, {"lat": 53.3852506198797, "long": -6.20851435239846, "id": 1223, "name": "Chanel Avenue"}, {"lat": 53.3866441577972, "long": -6.21093649115348, "id": 1224, "name": "Maryfield Crescent"}, {"lat": 53.386859379217, "long": -6.21390426931247, "id": 1225, "name": "Maryfield Drive"}, {"lat": 53.3885824619193, "long": -6.21492967615912, "id": 1226, "name": "Ardmore Drive"}, {"lat": 53.3911373107668, "long": -6.21507836605143, "id": 1227, "name": "Castlekevin Road"}, {"lat": 53.3938639430734, "long": -6.21469359247888, "id": 1253, "name": "Tranquility Grove"}, {"lat": 53.3956824564187, "long": -6.21548963822034, "id": 969, "name": "Northside SC"}, {"lat": 53.3993550470663, "long": -6.22187780324987, "id": 1176, "name": "Coolock Lane Park"}, {"lat": 53.4008973630857, "long": -6.22525748280842, "id": 1177, "name": "Clonshaugh Ind Est W"}, {"lat": 53.4034534096934, "long": -6.21884924282628, "id": 1178, "name": "Clonshaugh Ind Est N"}, {"lat": 53.3999311495941, "long": -6.21892118309895, "id": 1179, "name": "Clonshaugh Ind Est E"}, {"lat": 53.3975490018296, "long": -6.22917140050016, "id": 7112, "name": "Astro Park"}, {"lat": 53.3969960428868, "long": -6.23492379932207, "id": 972, "name": "Aulden Grange"}], "27B_37": [{"lat": 53.3943619874017, "long": -6.23124350090553, "id": 1233, "name": "Castletimon Drive"}, {"lat": 53.3946878729395, "long": -6.23261339665838, "id": 1234, "name": "Ballyshannon Avenue"}, {"lat": 53.3954603017448, "long": -6.2295438404062, "id": 7358, "name": "Castletimon Park"}, {"lat": 53.3954889982952, "long": -6.22784342643992, "id": 1231, "name": "Castletimon Road"}, {"lat": 53.3947366847022, "long": -6.22560408418948, "id": 1235, "name": "Kilbarron Road"}, {"lat": 53.3934573359116, "long": -6.22237931759755, "id": 1251, "name": "St Luke's Church"}, {"lat": 53.3899459507387, "long": -6.22439004685399, "id": 253, "name": "Beaumont Hospital"}, null, {"lat": 53.3930727351748, "long": -6.22069621903409, "id": 7130, "name": "Cromcastle Green"}, {"lat": 53.3926786800006, "long": -6.2189834723011, "id": 1237, "name": "Cromcastle Avenue"}, {"lat": 53.3915662233617, "long": -6.21491005695044, "id": 1238, "name": "Kilmore Avenue"}, {"lat": 53.3890041898569, "long": -6.21488195784464, "id": 1239, "name": "St John of Gods NS"}, {"lat": 53.3869761610618, "long": -6.21450075590271, "id": 247, "name": "Ardlea Road"}, {"lat": 53.3868184280309, "long": -6.21116973233947, "id": 1240, "name": "Maryfield Crescent"}, {"lat": 53.3858794293715, "long": -6.20908930804691, "id": 1241, "name": "Chanel Avenue"}, {"lat": 53.3844919489066, "long": -6.2070729228125, "id": 1242, "name": "Ardbeg Road"}, {"lat": 53.3826814602086, "long": -6.2062169636168, "id": 1277, "name": "Mornington Grove"}, {"lat": 53.3813021270913, "long": -6.2083343920684, "id": 1219, "name": "Danieli Road"}, {"lat": 53.3787625062963, "long": -6.21219890153812, "id": 1220, "name": "Killester Avenue"}, {"lat": 53.3768165000746, "long": -6.21609825408432, "id": 1221, "name": "Mayfield Park"}, {"lat": 53.3747192481277, "long": -6.21950756213928, "id": 664, "name": "Donnycarney Church"}, {"lat": 53.3724663177962, "long": -6.22212646122617, "id": 665, "name": "Casino Park"}, {"lat": 53.3702331241242, "long": -6.22426334784648, "id": 666, "name": "Mount Temple School"}, {"lat": 53.3679816454687, "long": -6.22698684651136, "id": 667, "name": "Brian Road"}, {"lat": 53.3645749808616, "long": -6.2293973168947, "id": 668, "name": "Marino Crescent Park"}, {"lat": 53.3636380024156, "long": -6.23349323029591, "id": 614, "name": "Fairview"}, {"lat": 53.3619064164568, "long": -6.23735129893029, "id": 615, "name": "Annesley Bridge"}, {"lat": 53.3598447138057, "long": -6.23955489630255, "id": 616, "name": "Nth Strand Fire Stn"}, {"lat": 53.3578945210736, "long": -6.24200909637442, "id": 617, "name": "Strandville Avenue"}, {"lat": 53.3561011779693, "long": -6.2447420676032, "id": 618, "name": "Newcomen Bridge"}, {"lat": 53.354044625043, "long": -6.24730533351979, "id": 619, "name": "Amiens Street"}, {"lat": 53.3528581377187, "long": -6.24852575947702, "id": 675, "name": "Buckingham St Lower"}, {"lat": 53.3505207924011, "long": -6.250334044096, "id": 4415, "name": "Connolly Train Stn"}, {"lat": 53.348059998093, "long": -6.25599245267002, "id": 303, "name": "Eden Quay"}], "27B_25": [{"lat": 53.348299240861, "long": -6.25575737577462, "id": 300, "name": "Liberty Hall"}, null, {"lat": 53.3505260754016, "long": -6.25069434322377, "id": 497, "name": "Connolly"}, {"lat": 53.3535348728268, "long": -6.24809240079494, "id": 515, "name": "Portland Row"}, {"lat": 53.3556839194156, "long": -6.24570568436261, "id": 516, "name": "North Strand Road"}, {"lat": 53.357680128025, "long": -6.2427090265571, "id": 4384, "name": "Bayview Avenue"}, {"lat": 53.3603387601192, "long": -6.23953452865892, "id": 519, "name": "North Strand Road"}, {"lat": 53.3616370470509, "long": -6.23797846068548, "id": 521, "name": "Annesley Bridge Road"}, {"lat": 53.3632889490314, "long": -6.23541597469792, "id": 522, "name": "Fairview"}, null, {"lat": 53.3642854537147, "long": -6.23169333166141, "id": 523, "name": "Marino College"}, {"lat": 53.3663170047536, "long": -6.2286789053178, "id": 669, "name": "Malahide Road"}, {"lat": 53.3689561148113, "long": -6.22602966389205, "id": 670, "name": "Mount Temple School"}, {"lat": 53.3707168419713, "long": -6.22415305315512, "id": 671, "name": "Nazareth House"}, {"lat": 53.3734663500314, "long": -6.22107782075331, "id": 672, "name": "Donnycarney Road"}, {"lat": 53.3749644657493, "long": -6.21967769392797, "id": 4382, "name": "Donnycarney Church"}, {"lat": 53.3780410337923, "long": -6.2144387216401, "id": 1196, "name": "Elm Mount Road"}, {"lat": 53.3792322771541, "long": -6.21175833300337, "id": 1197, "name": "Killester Avenue"}, {"lat": 53.3825121951938, "long": -6.20691559067275, "id": 1198, "name": "Mornington Grove"}, {"lat": 53.3840661618381, "long": -6.20685028183386, "id": 1222, "name": "Ardlea Road"}, {"lat": 53.3852506198797, "long": -6.20851435239846, "id": 1223, "name": "Chanel Avenue"}, {"lat": 53.3866441577972, "long": -6.21093649115348, "id": 1224, "name": "Maryfield Crescent"}, {"lat": 53.386859379217, "long": -6.21390426931247, "id": 1225, "name": "Maryfield Drive"}, {"lat": 53.3885824619193, "long": -6.21492967615912, "id": 1226, "name": "Ardmore Drive"}, {"lat": 53.3911373107668, "long": -6.21507836605143, "id": 1227, "name": "Castlekevin Road"}, {"lat": 53.3924289765026, "long": -6.21851273726681, "id": 1228, "name": "Kilbarron Road"}, {"lat": 53.3929072416209, "long": -6.22044750297315, "id": 1244, "name": "Cromcastle Green"}, {"lat": 53.3902652984461, "long": -6.22410611366832, "id": 254, "name": "Beaumont Hospital"}, {"lat": 53.3934932334641, "long": -6.22297928856429, "id": 1246, "name": "Kilbarron Park"}, {"lat": 53.3943116011738, "long": -6.22542628929809, "id": 1229, "name": "Kilbarron Drive"}, {"lat": 53.3954889982952, "long": -6.22784342643992, "id": 1231, "name": "Castletimon Road"}, {"lat": 53.3952854835275, "long": -6.23048341001443, "id": 1232, "name": "Castletimon Park"}, {"lat": 53.3943619874017, "long": -6.23124350090553, "id": 1233, "name": "Castletimon Drive"}, {"lat": 53.3946878729395, "long": -6.23261339665838, "id": 1234, "name": "Ballyshannon Avenue"}, {"lat": 53.3954603017448, "long": -6.2295438404062, "id": 7358, "name": "Castletimon Park"}, {"lat": 53.3957088554233, "long": -6.22509747426004, "id": 5174, "name": "Dundaniel Road"}, {"lat": 53.3972417816507, "long": -6.22422162082612, "id": 6078, "name": "Oscar Traynor Rd"}, {"lat": 53.3975490018296, "long": -6.22917140050016, "id": 7112, "name": "Astro Park"}, {"lat": 53.3969960428868, "long": -6.23492379932207, "id": 972, "name": "Aulden Grange"}], "27B_39": [{"lat": 53.3943619874017, "long": -6.23124350090553, "id": 1233, "name": "Castletimon Drive"}, {"lat": 53.3946878729395, "long": -6.23261339665838, "id": 1234, "name": "Ballyshannon Avenue"}, {"lat": 53.3954603017448, "long": -6.2295438404062, "id": 7358, "name": "Castletimon Park"}, {"lat": 53.3947366847022, "long": -6.22560408418948, "id": 1235, "name": "Kilbarron Road"}, {"lat": 53.3934573359116, "long": -6.22237931759755, "id": 1251, "name": "St Luke's Church"}, {"lat": 53.3930727351748, "long": -6.22069621903409, "id": 7130, "name": "Cromcastle Green"}, {"lat": 53.3926786800006, "long": -6.2189834723011, "id": 1237, "name": "Cromcastle Avenue"}, {"lat": 53.3915662233617, "long": -6.21491005695044, "id": 1238, "name": "Kilmore Avenue"}, {"lat": 53.3890041898569, "long": -6.21488195784464, "id": 1239, "name": "St John of Gods NS"}, {"lat": 53.3869761610618, "long": -6.21450075590271, "id": 247, "name": "Ardlea Road"}, {"lat": 53.3868184280309, "long": -6.21116973233947, "id": 1240, "name": "Maryfield Crescent"}, {"lat": 53.3858794293715, "long": -6.20908930804691, "id": 1241, "name": "Chanel Avenue"}, {"lat": 53.3844919489066, "long": -6.2070729228125, "id": 1242, "name": "Ardbeg Road"}, {"lat": 53.3826814602086, "long": -6.2062169636168, "id": 1277, "name": "Mornington Grove"}, {"lat": 53.3813021270913, "long": -6.2083343920684, "id": 1219, "name": "Danieli Road"}, {"lat": 53.3787625062963, "long": -6.21219890153812, "id": 1220, "name": "Killester Avenue"}, {"lat": 53.3768165000746, "long": -6.21609825408432, "id": 1221, "name": "Mayfield Park"}, {"lat": 53.3747192481277, "long": -6.21950756213928, "id": 664, "name": "Donnycarney Church"}, {"lat": 53.3724663177962, "long": -6.22212646122617, "id": 665, "name": "Casino Park"}, {"lat": 53.3702331241242, "long": -6.22426334784648, "id": 666, "name": "Mount Temple School"}, {"lat": 53.3679816454687, "long": -6.22698684651136, "id": 667, "name": "Brian Road"}, {"lat": 53.3645749808616, "long": -6.2293973168947, "id": 668, "name": "Marino Crescent Park"}, {"lat": 53.3636380024156, "long": -6.23349323029591, "id": 614, "name": "Fairview"}, {"lat": 53.3619064164568, "long": -6.23735129893029, "id": 615, "name": "Annesley Bridge"}, {"lat": 53.3598447138057, "long": -6.23955489630255, "id": 616, "name": "Nth Strand Fire Stn"}, {"lat": 53.3578945210736, "long": -6.24200909637442, "id": 617, "name": "Strandville Avenue"}, {"lat": 53.3561011779693, "long": -6.2447420676032, "id": 618, "name": "Newcomen Bridge"}, {"lat": 53.354044625043, "long": -6.24730533351979, "id": 619, "name": "Amiens Street"}, {"lat": 53.3528581377187, "long": -6.24852575947702, "id": 675, "name": "Buckingham St Lower"}, {"lat": 53.3505207924011, "long": -6.250334044096, "id": 4415, "name": "Connolly Train Stn"}, {"lat": 53.348059998093, "long": -6.25599245267002, "id": 303, "name": "Eden Quay"}], "27B_36": [{"lat": 53.3974093697463, "long": -6.23248556787174, "id": 7044, "name": "Aulden Grange"}, {"lat": 53.3977025969998, "long": -6.22922517485573, "id": 993, "name": "Astro Park"}, {"lat": 53.3971670149031, "long": -6.22402924061357, "id": 5060, "name": "Dundaniel Road"}, {"lat": 53.3956965209063, "long": -6.2248724258515, "id": 5061, "name": "Kilbarron Drive"}, {"lat": 53.3954889982952, "long": -6.22784342643992, "id": 1231, "name": "Castletimon Road"}, {"lat": 53.3952854835275, "long": -6.23048341001443, "id": 1232, "name": "Castletimon Park"}, {"lat": 53.3943619874017, "long": -6.23124350090553, "id": 1233, "name": "Castletimon Drive"}, {"lat": 53.3946878729395, "long": -6.23261339665838, "id": 1234, "name": "Ballyshannon Avenue"}, {"lat": 53.3954603017448, "long": -6.2295438404062, "id": 7358, "name": "Castletimon Park"}, {"lat": 53.3947366847022, "long": -6.22560408418948, "id": 1235, "name": "Kilbarron Road"}, {"lat": 53.3934573359116, "long": -6.22237931759755, "id": 1251, "name": "St Luke's Church"}, {"lat": 53.3899459507387, "long": -6.22439004685399, "id": 253, "name": "Beaumont Hospital"}, null, {"lat": 53.3930727351748, "long": -6.22069621903409, "id": 7130, "name": "Cromcastle Green"}, {"lat": 53.3926786800006, "long": -6.2189834723011, "id": 1237, "name": "Cromcastle Avenue"}, {"lat": 53.3915662233617, "long": -6.21491005695044, "id": 1238, "name": "Kilmore Avenue"}, {"lat": 53.3890041898569, "long": -6.21488195784464, "id": 1239, "name": "St John of Gods NS"}, {"lat": 53.3869761610618, "long": -6.21450075590271, "id": 247, "name": "Ardlea Road"}, {"lat": 53.3868184280309, "long": -6.21116973233947, "id": 1240, "name": "Maryfield Crescent"}, {"lat": 53.3858794293715, "long": -6.20908930804691, "id": 1241, "name": "Chanel Avenue"}, {"lat": 53.3844919489066, "long": -6.2070729228125, "id": 1242, "name": "Ardbeg Road"}, {"lat": 53.3826814602086, "long": -6.2062169636168, "id": 1277, "name": "Mornington Grove"}, {"lat": 53.3813021270913, "long": -6.2083343920684, "id": 1219, "name": "Danieli Road"}, {"lat": 53.3787625062963, "long": -6.21219890153812, "id": 1220, "name": "Killester Avenue"}, {"lat": 53.3768165000746, "long": -6.21609825408432, "id": 1221, "name": "Mayfield Park"}, {"lat": 53.3747192481277, "long": -6.21950756213928, "id": 664, "name": "Donnycarney Church"}, {"lat": 53.3724663177962, "long": -6.22212646122617, "id": 665, "name": "Casino Park"}, {"lat": 53.3702331241242, "long": -6.22426334784648, "id": 666, "name": "Mount Temple School"}, {"lat": 53.3679816454687, "long": -6.22698684651136, "id": 667, "name": "Brian Road"}, {"lat": 53.3645749808616, "long": -6.2293973168947, "id": 668, "name": "Marino Crescent Park"}, {"lat": 53.3636380024156, "long": -6.23349323029591, "id": 614, "name": "Fairview"}, {"lat": 53.3619064164568, "long": -6.23735129893029, "id": 615, "name": "Annesley Bridge"}, {"lat": 53.3598447138057, "long": -6.23955489630255, "id": 616, "name": "Nth Strand Fire Stn"}, {"lat": 53.3578945210736, "long": -6.24200909637442, "id": 617, "name": "Strandville Avenue"}, {"lat": 53.3561011779693, "long": -6.2447420676032, "id": 618, "name": "Newcomen Bridge"}, {"lat": 53.354044625043, "long": -6.24730533351979, "id": 619, "name": "Amiens Street"}, {"lat": 53.3528581377187, "long": -6.24852575947702, "id": 675, "name": "Buckingham St Lower"}, {"lat": 53.3505207924011, "long": -6.250334044096, "id": 4415, "name": "Connolly Train Stn"}, {"lat": 53.348059998093, "long": -6.25599245267002, "id": 303, "name": "Eden Quay"}]}