{"31D_51": [{"lat": 53.3978017565975, "long": -6.12678012056698, "id": 928, "name": "Baldoyle"}, {"lat": 53.3961828853448, "long": -6.12614445352466, "id": 929, "name": "Warrenhouse Road"}, {"lat": 53.3930552776366, "long": -6.12501878492175, "id": 930, "name": "Moyclare"}, {"lat": 53.3909048038219, "long": -6.12430137589119, "id": 931, "name": "Baldoyle Road"}, {"lat": 53.3883203243308, "long": -6.12513670736911, "id": 587, "name": "Baldoyle Rd Junction"}, {"lat": 53.3880531429547, "long": -6.12758411938934, "id": 588, "name": "Sutton Park"}, {"lat": 53.3867741299967, "long": -6.13430055607985, "id": 589, "name": "Kilbarrack Cemetery"}, {"lat": 53.3861819256089, "long": -6.13724311181706, "id": 590, "name": "Bayside"}, {"lat": 53.3841675899819, "long": -6.1446824866416, "id": 591, "name": "Kilbarrack Road"}, {"lat": 53.3827330098133, "long": -6.14838287246937, "id": 592, "name": "James Larkin Road"}, {"lat": 53.3818486949724, "long": -6.1516382571641, "id": 593, "name": "Blackbanks"}, {"lat": 53.3811633655603, "long": -6.15556136213255, "id": 594, "name": "Howth Road"}, {"lat": 53.3805999504448, "long": -6.15923856299824, "id": 595, "name": "Foxfield"}, {"lat": 53.3802528433273, "long": -6.16179397207683, "id": 596, "name": "The Old Shieling"}, {"lat": 53.3798981358436, "long": -6.16561235536727, "id": 597, "name": "Maywood"}, {"lat": 53.3798466295629, "long": -6.16928237742025, "id": 598, "name": "Avondale Park"}, {"lat": 53.380300318921, "long": -6.17308107835297, "id": 599, "name": "Raheny Library"}, {"lat": 53.3802479252415, "long": -6.17611981052532, "id": 600, "name": "Raheny"}, {"lat": 53.3792234833207, "long": -6.17966599663786, "id": 601, "name": "Cill Eanna"}, {"lat": 53.3781425247933, "long": -6.18304907100983, "id": 602, "name": "Wade's Avenue"}, {"lat": 53.3773821590119, "long": -6.18742542966489, "id": 603, "name": "Ennafort Park"}, {"lat": 53.3763546440125, "long": -6.1907908597344, "id": 604, "name": "Ennafort Road"}, {"lat": 53.3756666621091, "long": -6.19343532660639, "id": 605, "name": "The Meadows"}, {"lat": 53.3747089784039, "long": -6.19786466034232, "id": 606, "name": "St Bridgets Church"}, {"lat": 53.3725157799941, "long": -6.2020302137195, "id": 607, "name": "The Demense"}, {"lat": 53.3710783844663, "long": -6.20446531476556, "id": 608, "name": "Killester"}, null, null, {"lat": 53.3763670141145, "long": -6.22151304646926, "id": 1185, "name": "Oak Road"}, {"lat": 53.3776431058381, "long": -6.22632993786035, "id": 1186, "name": "Belton Park Road"}, {"lat": 53.3786075086963, "long": -6.23135544113246, "id": 1187, "name": "Celtic Park Road"}, {"lat": 53.3800184911148, "long": -6.23559608319271, "id": 1188, "name": "Grace Park Heights"}, {"lat": 53.3820319328845, "long": -6.2435251997587, "id": 237, "name": "Collins Avenue"}, {"lat": 53.3835460890355, "long": -6.24747670792423, "id": 206, "name": "Collins Avenue West"}, {"lat": 53.3848022173771, "long": -6.25100309535714, "id": 1643, "name": "St Aidan's School"}, {"lat": 53.3867756476317, "long": -6.25872495848864, "id": 7571, "name": "DCU Helix"}], "31D_50": [{"lat": 53.3867756476317, "long": -6.25872495848864, "id": 7571, "name": "DCU Helix"}, {"lat": 53.3801561172424, "long": -6.23578580779385, "id": 1190, "name": "Grace Park Heights"}, {"lat": 53.3792171883507, "long": -6.23307384015293, "id": 1191, "name": "Grace Park Meadows"}, {"lat": 53.3786331967669, "long": -6.23066293111017, "id": 1192, "name": "Celtic Park Road"}, {"lat": 53.3779921991337, "long": -6.22744276884893, "id": 1193, "name": "Grace Park Meadows"}, {"lat": 53.3775262086297, "long": -6.22511728190606, "id": 1194, "name": "Belton Park Road"}, {"lat": 53.3763899322038, "long": -6.2212415396415, "id": 1195, "name": "Oak Road"}, null, null, null, {"lat": 53.3712245323475, "long": -6.20402332968275, "id": 530, "name": "Killester"}, {"lat": 53.3732509125134, "long": -6.20130788472607, "id": 531, "name": "The Demesne"}, {"lat": 53.3750380598535, "long": -6.19703913201497, "id": 709, "name": "St Brigid's Church"}, {"lat": 53.3758020804062, "long": -6.19347468575645, "id": 532, "name": "The Meadows"}, {"lat": 53.3775832778058, "long": -6.18705613952435, "id": 533, "name": "Ennafort Park"}, {"lat": 53.3787502415627, "long": -6.1816402899894, "id": 534, "name": "Cill Eanna"}, {"lat": 53.3802570730373, "long": -6.17730695711366, "id": 535, "name": "Raheny"}, {"lat": 53.380423756711, "long": -6.17351172677598, "id": 536, "name": "Raheny Library"}, {"lat": 53.3799012003082, "long": -6.16815263497718, "id": 537, "name": "Avondale Park"}, {"lat": 53.3801380645897, "long": -6.16426418318847, "id": 538, "name": "Maywood"}, {"lat": 53.380673661813, "long": -6.1593556415375, "id": 539, "name": "Foxfield"}, {"lat": 53.3813362763715, "long": -6.15511794353322, "id": 540, "name": "Blackbanks Coast"}, {"lat": 53.3818727077533, "long": -6.15202806844657, "id": 541, "name": "James Larkin Road"}, {"lat": 53.3836619200484, "long": -6.14626794992899, "id": 542, "name": "Blackbanks"}, {"lat": 53.3850576987518, "long": -6.14238869291441, "id": 543, "name": "Kilbarrack Road"}, {"lat": 53.3861638881101, "long": -6.13781520278691, "id": 544, "name": "Bayside"}, {"lat": 53.3871119818387, "long": -6.13348894390046, "id": 545, "name": "Kilbarrack Cemetery"}, {"lat": 53.3880202508919, "long": -6.12835234700582, "id": 546, "name": "Sutton Park"}, {"lat": 53.3890081764416, "long": -6.12429456585936, "id": 910, "name": "Baldoyle Road"}, {"lat": 53.3910423677573, "long": -6.12447575892795, "id": 911, "name": "St Domhnach's Well"}, {"lat": 53.3934925519943, "long": -6.12539052055238, "id": 912, "name": "Moyclare"}, {"lat": 53.3968546328465, "long": -6.12656607819496, "id": 913, "name": "Baldoyle"}]}