{"32_57": [{"lat": 53.3505177759176, "long": -6.25626764847559, "id": 621, "name": "Talbot Street"}, {"lat": 53.3490351823495, "long": -6.25629812341938, "id": 289, "name": "Abbey St Lower"}, {"lat": 53.3494968761366, "long": -6.2522235786816, "id": 496, "name": "Bus\u00e1ras"}, null, {"lat": 53.3535348728268, "long": -6.24809240079494, "id": 515, "name": "Portland Row"}, {"lat": 53.3556839194156, "long": -6.24570568436261, "id": 516, "name": "North Strand Road"}, {"lat": 53.357680128025, "long": -6.2427090265571, "id": 4384, "name": "Bayview Avenue"}, {"lat": 53.3603387601192, "long": -6.23953452865892, "id": 519, "name": "North Strand Road"}, {"lat": 53.3616370470509, "long": -6.23797846068548, "id": 521, "name": "Annesley Bridge Road"}, {"lat": 53.3632889490314, "long": -6.23541597469792, "id": 522, "name": "Fairview"}, null, {"lat": 53.3642854537147, "long": -6.23169333166141, "id": 523, "name": "Marino College"}, {"lat": 53.3649608735137, "long": -6.22633091116311, "id": 525, "name": "Howth Road"}, {"lat": 53.3668695721507, "long": -6.22111227858026, "id": 526, "name": "Copeland Grove"}, {"lat": 53.3680198762304, "long": -6.21267888054439, "id": 527, "name": "St Lawrence Road"}, {"lat": 53.3692640807, "long": -6.20993674463172, "id": 528, "name": "Castle Grove"}, {"lat": 53.3705774149481, "long": -6.20761234516723, "id": 529, "name": "Collins Avenue"}, {"lat": 53.3712245323475, "long": -6.20402332968275, "id": 530, "name": "Killester"}, {"lat": 53.3732509125134, "long": -6.20130788472607, "id": 531, "name": "The Demesne"}, {"lat": 53.3750380598535, "long": -6.19703913201497, "id": 709, "name": "St Brigid's Church"}, {"lat": 53.3758020804062, "long": -6.19347468575645, "id": 532, "name": "The Meadows"}, {"lat": 53.3775832778058, "long": -6.18705613952435, "id": 533, "name": "Ennafort Park"}, {"lat": 53.3787502415627, "long": -6.1816402899894, "id": 534, "name": "Cill Eanna"}, {"lat": 53.3802570730373, "long": -6.17730695711366, "id": 535, "name": "Raheny"}, {"lat": 53.380423756711, "long": -6.17351172677598, "id": 536, "name": "Raheny Library"}, {"lat": 53.3799012003082, "long": -6.16815263497718, "id": 537, "name": "Avondale Park"}, {"lat": 53.3801380645897, "long": -6.16426418318847, "id": 538, "name": "Maywood"}, {"lat": 53.380673661813, "long": -6.1593556415375, "id": 539, "name": "Foxfield"}, {"lat": 53.3813362763715, "long": -6.15511794353322, "id": 540, "name": "Blackbanks Coast"}, {"lat": 53.3818727077533, "long": -6.15202806844657, "id": 541, "name": "James Larkin Road"}, {"lat": 53.3836619200484, "long": -6.14626794992899, "id": 542, "name": "Blackbanks"}, {"lat": 53.3850576987518, "long": -6.14238869291441, "id": 543, "name": "Kilbarrack Road"}, {"lat": 53.3861638881101, "long": -6.13781520278691, "id": 544, "name": "Bayside"}, {"lat": 53.3871119818387, "long": -6.13348894390046, "id": 545, "name": "Kilbarrack Cemetery"}, {"lat": 53.3880202508919, "long": -6.12835234700582, "id": 546, "name": "Sutton Park"}, {"lat": 53.3890081764416, "long": -6.12429456585936, "id": 910, "name": "Baldoyle Road"}, {"lat": 53.3910423677573, "long": -6.12447575892795, "id": 911, "name": "St Domhnach's Well"}, {"lat": 53.3934925519943, "long": -6.12539052055238, "id": 912, "name": "Moyclare"}, {"lat": 53.3968546328465, "long": -6.12656607819496, "id": 913, "name": "Baldoyle"}, {"lat": 53.398756896245, "long": -6.12750513786135, "id": 914, "name": "Willie Nolan Road"}, {"lat": 53.4015430636042, "long": -6.13036064599338, "id": 938, "name": "The Coast"}, {"lat": 53.4065549106176, "long": -6.13472849629383, "id": 940, "name": "Coast Road"}, {"lat": 53.4100761024728, "long": -6.13689098610447, "id": 941, "name": "Moyne Bridge"}, {"lat": 53.4150379805998, "long": -6.13864489000412, "id": 942, "name": "St Rita's House"}, {"lat": 53.4182478297384, "long": -6.14217580552131, "id": 943, "name": "Portmarnock Bridge"}, {"lat": 53.4216464103948, "long": -6.13647533462087, "id": 3599, "name": "Portmarnock"}, {"lat": 53.4235191917004, "long": -6.13380524656016, "id": 3600, "name": "The Dunes"}, {"lat": 53.4261017258079, "long": -6.13111883041258, "id": 3601, "name": "Blackberry Rise"}, {"lat": 53.4283830499948, "long": -6.12871620447889, "id": 3602, "name": "Blackberry Lane"}, {"lat": 53.4324293095069, "long": -6.12480585510111, "id": 3604, "name": "Portmarnock Cresent"}, {"lat": 53.4342760576558, "long": -6.12392681591466, "id": 3616, "name": "Coast Road"}, {"lat": 53.4386940037087, "long": -6.12308488364282, "id": 3618, "name": "Monks Meadow"}, {"lat": 53.4447042716455, "long": -6.12805903347909, "id": 3619, "name": "Robswall Crescent"}, {"lat": 53.446472388703, "long": -6.13421430205896, "id": 3620, "name": "Biscayne"}, {"lat": 53.4494644047502, "long": -6.13991006937344, "id": 3622, "name": "Sea Park"}, {"lat": 53.4506565379305, "long": -6.14374269102433, "id": 3623, "name": "Mayfair"}, {"lat": 53.4508653406917, "long": -6.15257211826829, "id": 4387, "name": "Malahide Village"}], "32_58": [{"lat": 53.4512707364029, "long": -6.15147039768367, "id": 3624, "name": "St James's Terrace"}, {"lat": 53.4511271472552, "long": -6.14510743008015, "id": 3587, "name": "The Old Golf Links"}, {"lat": 53.4499088963418, "long": -6.14074888133154, "id": 3588, "name": "Sea Park"}, {"lat": 53.4487594020583, "long": -6.1373511779913, "id": 3590, "name": "Muldowney Court"}, {"lat": 53.4460837138291, "long": -6.13234940443323, "id": 3589, "name": "Biscayne"}, {"lat": 53.4446336150143, "long": -6.12756532644502, "id": 3591, "name": "Robswall Crescent"}, {"lat": 53.4378792433162, "long": -6.12271437882169, "id": 3592, "name": "Monks Meadow"}, {"lat": 53.4326864801107, "long": -6.1245838208675, "id": 3593, "name": "Strand Road"}, {"lat": 53.4296982618592, "long": -6.12718355130874, "id": 3594, "name": "Portmarnock Hotel"}, {"lat": 53.427408223894, "long": -6.12960176741938, "id": 3595, "name": "Blackberry Lane"}, {"lat": 53.4258334419757, "long": -6.13120584227608, "id": 3596, "name": "Blackberry Rise"}, {"lat": 53.423985366893, "long": -6.13315282353757, "id": 3597, "name": "The Dunes"}, {"lat": 53.4217393453328, "long": -6.13609509819768, "id": 3598, "name": "Portmarnock"}, {"lat": 53.4194716115307, "long": -6.13995581550572, "id": 4465, "name": "Hazel Court"}, {"lat": 53.4172420695427, "long": -6.14223470115136, "id": 944, "name": "Coast Road"}, {"lat": 53.4153095523378, "long": -6.13876842932914, "id": 945, "name": "St Rita's House"}, {"lat": 53.4091864740115, "long": -6.13632817520071, "id": 947, "name": "Moyne Bridge"}, {"lat": 53.4061434361123, "long": -6.1342802188575, "id": 948, "name": "Moyne Cottages"}, {"lat": 53.4031715594786, "long": -6.13161277863033, "id": 949, "name": "The Coast"}, {"lat": 53.3978017565975, "long": -6.12678012056698, "id": 928, "name": "Baldoyle"}, {"lat": 53.3961828853448, "long": -6.12614445352466, "id": 929, "name": "Warrenhouse Road"}, {"lat": 53.3930552776366, "long": -6.12501878492175, "id": 930, "name": "Moyclare"}, {"lat": 53.3909048038219, "long": -6.12430137589119, "id": 931, "name": "Baldoyle Road"}, {"lat": 53.3883203243308, "long": -6.12513670736911, "id": 587, "name": "Baldoyle Rd Junction"}, {"lat": 53.3880531429547, "long": -6.12758411938934, "id": 588, "name": "Sutton Park"}, {"lat": 53.3867741299967, "long": -6.13430055607985, "id": 589, "name": "Kilbarrack Cemetery"}, {"lat": 53.3861819256089, "long": -6.13724311181706, "id": 590, "name": "Bayside"}, {"lat": 53.3841675899819, "long": -6.1446824866416, "id": 591, "name": "Kilbarrack Road"}, {"lat": 53.3827330098133, "long": -6.14838287246937, "id": 592, "name": "James Larkin Road"}, {"lat": 53.3818486949724, "long": -6.1516382571641, "id": 593, "name": "Blackbanks"}, {"lat": 53.3811633655603, "long": -6.15556136213255, "id": 594, "name": "Howth Road"}, {"lat": 53.3805999504448, "long": -6.15923856299824, "id": 595, "name": "Foxfield"}, {"lat": 53.3802528433273, "long": -6.16179397207683, "id": 596, "name": "The Old Shieling"}, {"lat": 53.3798981358436, "long": -6.16561235536727, "id": 597, "name": "Maywood"}, {"lat": 53.3798466295629, "long": -6.16928237742025, "id": 598, "name": "Avondale Park"}, {"lat": 53.380300318921, "long": -6.17308107835297, "id": 599, "name": "Raheny Library"}, {"lat": 53.3802479252415, "long": -6.17611981052532, "id": 600, "name": "Raheny"}, {"lat": 53.3792234833207, "long": -6.17966599663786, "id": 601, "name": "Cill Eanna"}, {"lat": 53.3781425247933, "long": -6.18304907100983, "id": 602, "name": "Wade's Avenue"}, {"lat": 53.3773821590119, "long": -6.18742542966489, "id": 603, "name": "Ennafort Park"}, {"lat": 53.3763546440125, "long": -6.1907908597344, "id": 604, "name": "Ennafort Road"}, {"lat": 53.3756666621091, "long": -6.19343532660639, "id": 605, "name": "The Meadows"}, {"lat": 53.3747089784039, "long": -6.19786466034232, "id": 606, "name": "St Bridgets Church"}, {"lat": 53.3725157799941, "long": -6.2020302137195, "id": 607, "name": "The Demense"}, {"lat": 53.3710783844663, "long": -6.20446531476556, "id": 608, "name": "Killester"}, {"lat": 53.3698375440806, "long": -6.20862025648962, "id": 609, "name": "Castle Grove"}, {"lat": 53.3683623013095, "long": -6.21153745527432, "id": 610, "name": "Ashbrook"}, {"lat": 53.3667546791219, "long": -6.21883292211129, "id": 611, "name": "Hollybrook Park"}, {"lat": 53.3657562265207, "long": -6.22420912998324, "id": 612, "name": "Copeland Avenue"}, {"lat": 53.3646174709919, "long": -6.22681099838456, "id": 613, "name": "Marino Crescent Park"}, {"lat": 53.3636380024156, "long": -6.23349323029591, "id": 614, "name": "Fairview"}, {"lat": 53.3619064164568, "long": -6.23735129893029, "id": 615, "name": "Annesley Bridge"}, {"lat": 53.3598447138057, "long": -6.23955489630255, "id": 616, "name": "Nth Strand Fire Stn"}, {"lat": 53.3578945210736, "long": -6.24200909637442, "id": 617, "name": "Strandville Avenue"}, {"lat": 53.3561011779693, "long": -6.2447420676032, "id": 618, "name": "Newcomen Bridge"}, {"lat": 53.354044625043, "long": -6.24730533351979, "id": 619, "name": "Amiens Street"}, {"lat": 53.3528581377187, "long": -6.24852575947702, "id": 675, "name": "Buckingham St Lower"}, {"lat": 53.3509610944437, "long": -6.25277955690344, "id": 620, "name": "Talbot Street"}, {"lat": 53.3504505082384, "long": -6.25596996553252, "id": 7569, "name": "Gardiner Street"}]}