{"32X_76": [{"lat": 53.3048966218259, "long": -6.21693731714651, "id": 4952, "name": "UCD"}, {"lat": 53.3094181940068, "long": -6.21877482979347, "id": 768, "name": "UCD N11 Entrance"}, {"lat": 53.3146361875625, "long": -6.22573181130967, "id": 770, "name": "RTE"}, {"lat": 53.3199163484799, "long": -6.23327331931076, "id": 773, "name": "Donnybrook Road"}, {"lat": 53.3216121235643, "long": -6.23549999641969, "id": 774, "name": "Donnybrook Garda Stn"}, {"lat": 53.3288107659747, "long": -6.24763437727536, "id": 906, "name": "Leeson St Upper"}, {"lat": 53.3331476599204, "long": -6.25407836385524, "id": 909, "name": "Fitzwilliam Place"}, {"lat": 53.3351467148295, "long": -6.25617403577253, "id": 786, "name": "Embassy of Malta"}, {"lat": 53.3388796212347, "long": -6.25698283049022, "id": 791, "name": "Stephen's Green Nth"}, {"lat": 53.3392943719705, "long": -6.2583024730144, "id": 790, "name": "Stephen's Green Nth"}, null, {"lat": 53.342037080113, "long": -6.25347487958774, "id": 7585, "name": "National Gallery"}, {"lat": 53.3444579282255, "long": -6.25122815978981, "id": 7587, "name": "Science Gallery"}, {"lat": 53.3494968761366, "long": -6.2522235786816, "id": 496, "name": "Bus\u00e1ras"}, null, {"lat": 53.3632889490314, "long": -6.23541597469792, "id": 522, "name": "Fairview"}, null, {"lat": 53.3631169030887, "long": -6.22080282346908, "id": 1741, "name": "Alfie Byrne Road"}, {"lat": 53.3593509922763, "long": -6.19686014145269, "id": 1747, "name": "John the Baptist Ch"}, {"lat": 53.3585903733516, "long": -6.19055194015273, "id": 1749, "name": "Clontarf Bus Garage"}, {"lat": 53.3861638881101, "long": -6.13781520278691, "id": 544, "name": "Bayside"}, {"lat": 53.3880202508919, "long": -6.12835234700582, "id": 546, "name": "Sutton Park"}, {"lat": 53.398756896245, "long": -6.12750513786135, "id": 914, "name": "Willie Nolan Road"}, {"lat": 53.4015430636042, "long": -6.13036064599338, "id": 938, "name": "The Coast"}, {"lat": 53.4065549106176, "long": -6.13472849629383, "id": 940, "name": "Coast Road"}, {"lat": 53.4100761024728, "long": -6.13689098610447, "id": 941, "name": "Moyne Bridge"}, {"lat": 53.4150379805998, "long": -6.13864489000412, "id": 942, "name": "St Rita's House"}, {"lat": 53.4182478297384, "long": -6.14217580552131, "id": 943, "name": "Portmarnock Bridge"}, {"lat": 53.4216464103948, "long": -6.13647533462087, "id": 3599, "name": "Portmarnock"}, {"lat": 53.4257478599578, "long": -6.13435468795172, "id": 3610, "name": "Carrickhill Rd Lower"}, {"lat": 53.4288464783475, "long": -6.13363204181754, "id": 3611, "name": "Ardilaun"}, {"lat": 53.4312455162842, "long": -6.13473093057642, "id": 6135, "name": "Hillcourt"}, {"lat": 53.4333688566491, "long": -6.13659455646567, "id": 3612, "name": "Portmarnock Comm Sch"}, {"lat": 53.4350997464349, "long": -6.13462231666519, "id": 3613, "name": "Redfern Avenue"}, {"lat": 53.4353131956598, "long": -6.13160263373428, "id": 3615, "name": "Wendell Avenue"}, {"lat": 53.4342760576558, "long": -6.12392681591466, "id": 3616, "name": "Coast Road"}, {"lat": 53.4386940037087, "long": -6.12308488364282, "id": 3618, "name": "Monks Meadow"}, {"lat": 53.4447042716455, "long": -6.12805903347909, "id": 3619, "name": "Robswall Crescent"}, {"lat": 53.4461014425476, "long": -6.13233357108612, "id": 6087, "name": "Biscayne"}, {"lat": 53.446472388703, "long": -6.13421430205896, "id": 3620, "name": "Biscayne"}, {"lat": 53.4483822211924, "long": -6.13679554572945, "id": 3621, "name": "Muldowney Court"}, {"lat": 53.4494644047502, "long": -6.13991006937344, "id": 3622, "name": "Sea Park"}, {"lat": 53.4506565379305, "long": -6.14374269102433, "id": 3623, "name": "Mayfair"}, {"lat": 53.4508653406917, "long": -6.15257211826829, "id": 4387, "name": "Malahide Village"}, {"lat": 53.4504553094367, "long": -6.15511948757256, "id": 3634, "name": "Malahide Station"}, {"lat": 53.449639949498, "long": -6.16053006209442, "id": 3635, "name": "Cricket Club"}, {"lat": 53.4494224481666, "long": -6.16216557345162, "id": 3636, "name": "St Sylvesters School"}, {"lat": 53.4515617429164, "long": -6.17036978115391, "id": 905, "name": "Yellow Walls Road"}, {"lat": 53.4553999212174, "long": -6.17920983948015, "id": 4331, "name": "Seabury Road"}, {"lat": 53.4526871929969, "long": -6.18345171238108, "id": 4339, "name": "Estuary Road"}, {"lat": 53.4495775044651, "long": -6.18346398421425, "id": 7616, "name": "The Warren"}, {"lat": 53.4483368714849, "long": -6.17990345586982, "id": 5081, "name": "Kileen Park"}, {"lat": 53.4471974652727, "long": -6.17650440872403, "id": 5082, "name": "Millview"}], "32X_74": [{"lat": 53.4462983942036, "long": -6.17413405232649, "id": 3640, "name": "Malahide Castle"}, {"lat": 53.4487748072412, "long": -6.18151081015816, "id": 3574, "name": "Talbot Road"}, {"lat": 53.4527251816362, "long": -6.18358561013729, "id": 3641, "name": "Estuary Road"}, {"lat": 53.4551261647174, "long": -6.18129963413735, "id": 3642, "name": "Sacred Heart Church"}, {"lat": 53.4512379025996, "long": -6.16917912660035, "id": 3643, "name": "Yellow Walls Rd"}, {"lat": 53.4493479035552, "long": -6.1631625249754, "id": 3583, "name": "St Sylvesters School"}, {"lat": 53.4498545363505, "long": -6.15987334791898, "id": 3584, "name": "Cricket Club"}, {"lat": 53.4506330921268, "long": -6.15499132484144, "id": 3585, "name": "Malahide Station"}, {"lat": 53.4511271472552, "long": -6.14510743008015, "id": 3587, "name": "The Old Golf Links"}, {"lat": 53.4499088963418, "long": -6.14074888133154, "id": 3588, "name": "Sea Park"}, {"lat": 53.4460837138291, "long": -6.13234940443323, "id": 3589, "name": "Biscayne"}, {"lat": 53.4339680619858, "long": -6.12491871315417, "id": 3605, "name": "Wendell Avenue"}, {"lat": 53.4349291947649, "long": -6.13003907103477, "id": 3606, "name": "Kelvin Close"}, {"lat": 53.4349010292874, "long": -6.13628668774057, "id": 3607, "name": "Redfern Avenue"}, {"lat": 53.4310857730011, "long": -6.13428642172757, "id": 3608, "name": "Hillcourt"}, {"lat": 53.4260851827363, "long": -6.13408409155061, "id": 3609, "name": "Carrickhill Rd Lower"}, {"lat": 53.4217393453328, "long": -6.13609509819768, "id": 3598, "name": "Portmarnock"}, {"lat": 53.4194716115307, "long": -6.13995581550572, "id": 4465, "name": "Hazel Court"}, {"lat": 53.4172420695427, "long": -6.14223470115136, "id": 944, "name": "Coast Road"}, {"lat": 53.4153095523378, "long": -6.13876842932914, "id": 945, "name": "St Rita's House"}, {"lat": 53.4091864740115, "long": -6.13632817520071, "id": 947, "name": "Moyne Bridge"}, {"lat": 53.4061434361123, "long": -6.1342802188575, "id": 948, "name": "Moyne Cottages"}, {"lat": 53.4031715594786, "long": -6.13161277863033, "id": 949, "name": "The Coast"}, {"lat": 53.3978017565975, "long": -6.12678012056698, "id": 928, "name": "Baldoyle"}, {"lat": 53.3880531429547, "long": -6.12758411938934, "id": 588, "name": "Sutton Park"}, {"lat": 53.3861819256089, "long": -6.13724311181706, "id": 590, "name": "Bayside"}, {"lat": 53.3584969058401, "long": -6.19031550974047, "id": 1729, "name": "Clontarf Bus Garage"}, {"lat": 53.3590767534218, "long": -6.19655620427261, "id": 1731, "name": "John the Baptist Ch"}, {"lat": 53.3634508756384, "long": -6.22391433414585, "id": 1738, "name": "Clontarf Rd Pitches"}, {"lat": 53.3636380024156, "long": -6.23349323029591, "id": 614, "name": "Fairview"}, {"lat": 53.3528581377187, "long": -6.24852575947702, "id": 675, "name": "Buckingham St Lower"}, {"lat": 53.3505177759176, "long": -6.25626764847559, "id": 621, "name": "Talbot Street"}, null, {"lat": 53.3466922365933, "long": -6.25834636399192, "id": 333, "name": "D'Olier Street"}, null, {"lat": 53.339930803028, "long": -6.25572351873592, "id": 747, "name": "Kildare Street"}, {"lat": 53.3372519750086, "long": -6.25631338920494, "id": 842, "name": "Stephen's Green East"}, {"lat": 53.3334537330024, "long": -6.25411090847852, "id": 846, "name": "Fitzwilliam Place"}, {"lat": 53.3297279908182, "long": -6.24888799835484, "id": 848, "name": "Sussex Road"}, {"lat": 53.3203488508448, "long": -6.23334551683728, "id": 759, "name": "Donnybrook Stadium"}, {"lat": 53.318330187289, "long": -6.23056195593035, "id": 760, "name": "Donnybrook Church"}, {"lat": 53.3161004007996, "long": -6.22748721370695, "id": 761, "name": "Teresian School"}, {"lat": 53.3145170648506, "long": -6.22437094406488, "id": 762, "name": "RTE"}, {"lat": 53.3123201447844, "long": -6.2211003190802, "id": 763, "name": "Belfield Court"}, {"lat": 53.3048966218259, "long": -6.21693731714651, "id": 4952, "name": "UCD"}], "32X_77": [{"lat": 53.4462983942036, "long": -6.17413405232649, "id": 3640, "name": "Malahide Castle"}, {"lat": 53.4487748072412, "long": -6.18151081015816, "id": 3574, "name": "Talbot Road"}, {"lat": 53.4527251816362, "long": -6.18358561013729, "id": 3641, "name": "Estuary Road"}, {"lat": 53.4551261647174, "long": -6.18129963413735, "id": 3642, "name": "Sacred Heart Church"}, {"lat": 53.4512379025996, "long": -6.16917912660035, "id": 3643, "name": "Yellow Walls Rd"}, {"lat": 53.4493479035552, "long": -6.1631625249754, "id": 3583, "name": "St Sylvesters School"}, {"lat": 53.4498545363505, "long": -6.15987334791898, "id": 3584, "name": "Cricket Club"}, {"lat": 53.4506330921268, "long": -6.15499132484144, "id": 3585, "name": "Malahide Station"}, {"lat": 53.4511271472552, "long": -6.14510743008015, "id": 3587, "name": "The Old Golf Links"}, {"lat": 53.4499088963418, "long": -6.14074888133154, "id": 3588, "name": "Sea Park"}, {"lat": 53.4460837138291, "long": -6.13234940443323, "id": 3589, "name": "Biscayne"}, {"lat": 53.4339680619858, "long": -6.12491871315417, "id": 3605, "name": "Wendell Avenue"}, {"lat": 53.4349291947649, "long": -6.13003907103477, "id": 3606, "name": "Kelvin Close"}, {"lat": 53.4349010292874, "long": -6.13628668774057, "id": 3607, "name": "Redfern Avenue"}, {"lat": 53.4310857730011, "long": -6.13428642172757, "id": 3608, "name": "Hillcourt"}, {"lat": 53.4260851827363, "long": -6.13408409155061, "id": 3609, "name": "Carrickhill Rd Lower"}, {"lat": 53.4217393453328, "long": -6.13609509819768, "id": 3598, "name": "Portmarnock"}, {"lat": 53.4194716115307, "long": -6.13995581550572, "id": 4465, "name": "Hazel Court"}, {"lat": 53.4172420695427, "long": -6.14223470115136, "id": 944, "name": "Coast Road"}, {"lat": 53.4153095523378, "long": -6.13876842932914, "id": 945, "name": "St Rita's House"}, {"lat": 53.4091864740115, "long": -6.13632817520071, "id": 947, "name": "Moyne Bridge"}, {"lat": 53.4061434361123, "long": -6.1342802188575, "id": 948, "name": "Moyne Cottages"}, {"lat": 53.4031715594786, "long": -6.13161277863033, "id": 949, "name": "The Coast"}, {"lat": 53.3978017565975, "long": -6.12678012056698, "id": 928, "name": "Baldoyle"}, {"lat": 53.3880531429547, "long": -6.12758411938934, "id": 588, "name": "Sutton Park"}, {"lat": 53.3861819256089, "long": -6.13724311181706, "id": 590, "name": "Bayside"}, {"lat": 53.3584969058401, "long": -6.19031550974047, "id": 1729, "name": "Clontarf Bus Garage"}, {"lat": 53.3590767534218, "long": -6.19655620427261, "id": 1731, "name": "John the Baptist Ch"}, {"lat": 53.3634508756384, "long": -6.22391433414585, "id": 1738, "name": "Clontarf Rd Pitches"}, {"lat": 53.3636380024156, "long": -6.23349323029591, "id": 614, "name": "Fairview"}, {"lat": 53.3528581377187, "long": -6.24852575947702, "id": 675, "name": "Buckingham St Lower"}, {"lat": 53.3505177759176, "long": -6.25626764847559, "id": 621, "name": "Talbot Street"}, null, {"lat": 53.3464120071589, "long": -6.25700598616108, "id": 4495, "name": "Hawkins Street"}, {"lat": 53.3430357114115, "long": -6.24985957693027, "id": 2809, "name": "Pearse Station"}, {"lat": 53.3407949111292, "long": -6.25089748919423, "id": 2810, "name": "Merrion Sq West"}, {"lat": 53.3372519750086, "long": -6.25631338920494, "id": 842, "name": "Stephen's Green East"}, {"lat": 53.3334537330024, "long": -6.25411090847852, "id": 846, "name": "Fitzwilliam Place"}, {"lat": 53.3297279908182, "long": -6.24888799835484, "id": 848, "name": "Sussex Road"}, {"lat": 53.3203488508448, "long": -6.23334551683728, "id": 759, "name": "Donnybrook Stadium"}, {"lat": 53.318330187289, "long": -6.23056195593035, "id": 760, "name": "Donnybrook Church"}, {"lat": 53.3161004007996, "long": -6.22748721370695, "id": 761, "name": "Teresian School"}, {"lat": 53.3145170648506, "long": -6.22437094406488, "id": 762, "name": "RTE"}, {"lat": 53.3123201447844, "long": -6.2211003190802, "id": 763, "name": "Belfield Court"}, {"lat": 53.3048966218259, "long": -6.21693731714651, "id": 4952, "name": "UCD"}]}