{"40D_101": [{"lat": 53.3529076424333, "long": -6.2605115316502, "id": 6004, "name": "Parnell Street"}, {"lat": 53.3528409105808, "long": -6.26457026121744, "id": 7, "name": "Parnell Square West"}, {"lat": 53.3568152335319, "long": -6.26467919507521, "id": 11, "name": "St Joseph's Parade"}, {"lat": 53.3585312378782, "long": -6.26277650570866, "id": 14, "name": "Dorset Street Lower"}, {"lat": 53.3602667075989, "long": -6.26097804267247, "id": 15, "name": "Innisfallen Parade"}, {"lat": 53.3619754108391, "long": -6.26042763798583, "id": 834, "name": "Binns Bridge"}, {"lat": 53.3626280166373, "long": -6.26327096161364, "id": 835, "name": "St Brigid's Rd Lower"}, {"lat": 53.3632915018077, "long": -6.26624916236241, "id": 836, "name": "Claude Road"}, {"lat": 53.3637784077139, "long": -6.26821283704861, "id": 837, "name": "David Road"}, {"lat": 53.3667778214189, "long": -6.27237390919524, "id": 1506, "name": "Finglas Road"}, {"lat": 53.3683905203143, "long": -6.27450269164134, "id": 1507, "name": "St Vincent's School"}, {"lat": 53.3699109022656, "long": -6.27833355115676, "id": 1508, "name": "Glasnevin Cemetery"}, {"lat": 53.3729258340444, "long": -6.28422366048827, "id": 1509, "name": "Slaney Road"}, {"lat": 53.3769069295235, "long": -6.28731023718707, "id": 1510, "name": "Ballyboggan Road"}, {"lat": 53.3782345231803, "long": -6.28775298457063, "id": 1511, "name": "Tolka Vale"}, {"lat": 53.382174322341, "long": -6.29172883549392, "id": 1512, "name": "Prospect Hill"}, {"lat": 53.384474141314, "long": -6.29479375491459, "id": 1538, "name": "Clearwater SC"}, {"lat": 53.3862359182823, "long": -6.29606135967967, "id": 4548, "name": "Finglas Place"}, {"lat": 53.3894651562236, "long": -6.30002191446055, "id": 1514, "name": "Drogheda Mall"}, {"lat": 53.3898045691491, "long": -6.30303046268453, "id": 980, "name": "Finglas Sports Centre"}, {"lat": 53.3897809067965, "long": -6.30706083246075, "id": 981, "name": "Finglas Garda Stn"}, {"lat": 53.3893174054929, "long": -6.31304812471738, "id": 1576, "name": "Cappagh Road"}, {"lat": 53.3898858080568, "long": -6.31574701686641, "id": 1577, "name": "Abbottstown Road"}, {"lat": 53.3903851294561, "long": -6.31801267740448, "id": 1578, "name": "Ratoath Drive"}, {"lat": 53.3929113883209, "long": -6.32252918543631, "id": 4364, "name": "Cappagh Hospital"}, {"lat": 53.3935215772456, "long": -6.32373817662823, "id": 1579, "name": "Cappagh Hospital"}, {"lat": 53.3979032077214, "long": -6.33433315208017, "id": 1580, "name": "Cappagh Cross"}, {"lat": 53.3971412743413, "long": -6.34158100949339, "id": 7237, "name": "Stadium Business Pk"}, {"lat": 53.3977448642458, "long": -6.346865916319, "id": 7241, "name": "Barnlodge"}, {"lat": 53.3987923977988, "long": -6.35177289546406, "id": 7247, "name": "Ballycoolin Road"}, {"lat": 53.403352583087, "long": -6.35788327542562, "id": 7243, "name": "Rosemount Bus. Park"}, {"lat": 53.4058768160178, "long": -6.35647750443813, "id": 7126, "name": "IDA Ireland"}, {"lat": 53.4084344681321, "long": -6.35815381158119, "id": 7124, "name": "Ballycoolin  Bus Pk"}, {"lat": 53.4128446843872, "long": -6.36121821689487, "id": 7343, "name": "Corporate Park 2"}, {"lat": 53.40991475103, "long": -6.36844579885643, "id": 7318, "name": "Corporate Park"}, {"lat": 53.4092575333429, "long": -6.37099799453746, "id": 4978, "name": "Corporate Park"}, {"lat": 53.411336778609, "long": -6.37782310054472, "id": 4979, "name": "Alexion"}, {"lat": 53.4152032703383, "long": -6.38524305833723, "id": 4986, "name": "Curragh Hall"}, {"lat": 53.4170474415293, "long": -6.38603072502407, "id": 7107, "name": "Ballentree Avenue"}, {"lat": 53.4181504664114, "long": -6.38717750516206, "id": 7102, "name": "Bealing Walk"}, {"lat": 53.4198303804533, "long": -6.39311711572295, "id": 7103, "name": "Cruise Park"}, {"lat": 53.4219165430792, "long": -6.39118774250755, "id": 7104, "name": "Mount Garrett"}, {"lat": 53.4213506902989, "long": -6.38788391150304, "id": 7105, "name": "Mount Eustace"}, {"lat": 53.4209886478085, "long": -6.38570089107588, "id": 7106, "name": "Bellgree Avenue"}, {"lat": 53.4199426183244, "long": -6.38345358073983, "id": 6005, "name": "Plaza Apartments"}, {"lat": 53.4192687601319, "long": -6.37816811110938, "id": 7072, "name": "Carlton Hotel"}], "40D_103": [{"lat": 53.4190813380993, "long": -6.37826551658187, "id": 7073, "name": "Carlton Hotel"}, {"lat": 53.4201410048362, "long": -6.38483026083255, "id": 7097, "name": "Belgree Boulevard"}, {"lat": 53.4213365810099, "long": -6.38817032190169, "id": 7098, "name": "Mount Eustace"}, {"lat": 53.4217821993041, "long": -6.39122290765649, "id": 7099, "name": "Mount Garrett"}, {"lat": 53.4197588677532, "long": -6.39181084800086, "id": 7100, "name": "Rathmore Cresent"}, {"lat": 53.4182584685745, "long": -6.38718846260958, "id": 7101, "name": "Bealing Walk"}, {"lat": 53.4175790793027, "long": -6.38613094865104, "id": 7505, "name": "Ballentree Avenue"}, {"lat": 53.4109617026683, "long": -6.37601723284506, "id": 5071, "name": "Alexion"}, {"lat": 53.4093093811824, "long": -6.37084559393008, "id": 5072, "name": "Corporate Park"}, {"lat": 53.4115449191932, "long": -6.37000801375909, "id": 4321, "name": "Cold Stores"}, {"lat": 53.4127668338625, "long": -6.36078495833773, "id": 7342, "name": "Corporate Park 2"}, {"lat": 53.4082421006173, "long": -6.35789047220709, "id": 7125, "name": "Ballycoolin Bus Pk"}, {"lat": 53.4046892107179, "long": -6.35769643124834, "id": 7344, "name": "IDA Ireland"}, {"lat": 53.4021884304085, "long": -6.35558195722211, "id": 2510, "name": "Rosemount Park"}, {"lat": 53.3984085729985, "long": -6.35001323216176, "id": 7242, "name": "Ballycoolin Road"}, {"lat": 53.3971834122747, "long": -6.34461698765796, "id": 7238, "name": "Barnlodge"}, {"lat": 53.3978166587198, "long": -6.33844189162479, "id": 7224, "name": "Stadium Business Pk"}, {"lat": 53.3980680130001, "long": -6.33390564981337, "id": 1581, "name": "Cappagh Cross"}, {"lat": 53.3927698845672, "long": -6.32205359231625, "id": 1582, "name": "Cappagh Road"}, {"lat": 53.3922672634028, "long": -6.32082537531735, "id": 4793, "name": "Avila Park"}, {"lat": 53.3902823798293, "long": -6.31709957382233, "id": 6068, "name": "Ratoath Drive"}, {"lat": 53.3898854600317, "long": -6.31508548205004, "id": 1584, "name": "Abbottstown Road"}, {"lat": 53.3901416743217, "long": -6.31095569222059, "id": 983, "name": "Mellowes Road"}, {"lat": 53.389911388028, "long": -6.30675494955134, "id": 984, "name": "Finglas Garda Stn"}, {"lat": 53.3899247513554, "long": -6.30389772523609, "id": 985, "name": "Finglas Sports Centre"}, {"lat": 53.3884588269294, "long": -6.29815260689773, "id": 1529, "name": "Finglas Village"}, {"lat": 53.3866641413239, "long": -6.29709664327809, "id": 4542, "name": "Finglas Road"}, {"lat": 53.3837436640296, "long": -6.29336474093081, "id": 1531, "name": "Clearwater SC"}, {"lat": 53.3817441172312, "long": -6.29055850090001, "id": 1532, "name": "Prospect Hill"}, {"lat": 53.3789678847602, "long": -6.28749808800206, "id": 1533, "name": "Tolka Vale"}, {"lat": 53.3753328391602, "long": -6.28597560287492, "id": 1534, "name": "Ballyboggan Road"}, {"lat": 53.3723059581397, "long": -6.28236994393795, "id": 1535, "name": "The Willows"}, {"lat": 53.3695033971709, "long": -6.27687723281354, "id": 1536, "name": "Glasnevin Cemetery"}, {"lat": 53.3680662049802, "long": -6.27320839893696, "id": 1537, "name": "St Vincent's School"}, {"lat": 53.3653553426373, "long": -6.27158997755113, "id": 186, "name": "Lindsay Grove"}, {"lat": 53.3643193961187, "long": -6.27018939098137, "id": 838, "name": "Whitworth Road"}, {"lat": 53.3637449204203, "long": -6.26776341253996, "id": 839, "name": "David Road"}, {"lat": 53.3632433495651, "long": -6.26540966607283, "id": 840, "name": "Claude Road"}, {"lat": 53.3621221995308, "long": -6.26063201536309, "id": 841, "name": "St Patrick's Road"}, {"lat": 53.3600042378903, "long": -6.26085350834049, "id": 49, "name": "Dorset Street Lower"}, {"lat": 53.3578104088118, "long": -6.26327157246547, "id": 51, "name": "Temple Street"}, {"lat": 53.3566607792373, "long": -6.26456528204094, "id": 52, "name": "Dorset Street Upper"}, {"lat": 53.352115616113, "long": -6.26105453403103, "id": 4725, "name": "O'Connell St Upper"}, {"lat": 53.353090589228, "long": -6.26011349990353, "id": 6071, "name": "Parnell Street"}], "40D_106": [{"lat": 53.426760621919, "long": -6.36995256466857, "id": 7560, "name": "The Oaks"}, {"lat": 53.4190813380993, "long": -6.37826551658187, "id": 7073, "name": "Carlton Hotel"}, {"lat": 53.4201410048362, "long": -6.38483026083255, "id": 7097, "name": "Belgree Boulevard"}, {"lat": 53.4213365810099, "long": -6.38817032190169, "id": 7098, "name": "Mount Eustace"}, {"lat": 53.4217821993041, "long": -6.39122290765649, "id": 7099, "name": "Mount Garrett"}, {"lat": 53.4197588677532, "long": -6.39181084800086, "id": 7100, "name": "Rathmore Cresent"}, {"lat": 53.4182584685745, "long": -6.38718846260958, "id": 7101, "name": "Bealing Walk"}, {"lat": 53.4109617026683, "long": -6.37601723284506, "id": 5071, "name": "Alexion"}, {"lat": 53.4093093811824, "long": -6.37084559393008, "id": 5072, "name": "Corporate Park"}, {"lat": 53.4127668338625, "long": -6.36078495833773, "id": 7342, "name": "Corporate Park 2"}, {"lat": 53.4082421006173, "long": -6.35789047220709, "id": 7125, "name": "Ballycoolin Bus Pk"}, {"lat": 53.4046892107179, "long": -6.35769643124834, "id": 7344, "name": "IDA Ireland"}, {"lat": 53.4021884304085, "long": -6.35558195722211, "id": 2510, "name": "Rosemount Park"}, {"lat": 53.3984085729985, "long": -6.35001323216176, "id": 7242, "name": "Ballycoolin Road"}, {"lat": 53.3971834122747, "long": -6.34461698765796, "id": 7238, "name": "Barnlodge"}, {"lat": 53.3978166587198, "long": -6.33844189162479, "id": 7224, "name": "Stadium Business Pk"}, {"lat": 53.3980680130001, "long": -6.33390564981337, "id": 1581, "name": "Cappagh Cross"}, {"lat": 53.3927698845672, "long": -6.32205359231625, "id": 1582, "name": "Cappagh Road"}, {"lat": 53.3922672634028, "long": -6.32082537531735, "id": 4793, "name": "Avila Park"}, {"lat": 53.3902823798293, "long": -6.31709957382233, "id": 6068, "name": "Ratoath Drive"}, {"lat": 53.3898854600317, "long": -6.31508548205004, "id": 1584, "name": "Abbottstown Road"}, {"lat": 53.3901416743217, "long": -6.31095569222059, "id": 983, "name": "Mellowes Road"}, {"lat": 53.389911388028, "long": -6.30675494955134, "id": 984, "name": "Finglas Garda Stn"}, {"lat": 53.3899247513554, "long": -6.30389772523609, "id": 985, "name": "Finglas Sports Centre"}, {"lat": 53.3884588269294, "long": -6.29815260689773, "id": 1529, "name": "Finglas Village"}, {"lat": 53.3866641413239, "long": -6.29709664327809, "id": 4542, "name": "Finglas Road"}, {"lat": 53.3837436640296, "long": -6.29336474093081, "id": 1531, "name": "Clearwater SC"}, {"lat": 53.3817441172312, "long": -6.29055850090001, "id": 1532, "name": "Prospect Hill"}, {"lat": 53.3789678847602, "long": -6.28749808800206, "id": 1533, "name": "Tolka Vale"}, {"lat": 53.3753328391602, "long": -6.28597560287492, "id": 1534, "name": "Ballyboggan Road"}, {"lat": 53.3723059581397, "long": -6.28236994393795, "id": 1535, "name": "The Willows"}, {"lat": 53.3695033971709, "long": -6.27687723281354, "id": 1536, "name": "Glasnevin Cemetery"}, {"lat": 53.3680662049802, "long": -6.27320839893696, "id": 1537, "name": "St Vincent's School"}, {"lat": 53.3653553426373, "long": -6.27158997755113, "id": 186, "name": "Lindsay Grove"}, {"lat": 53.3643193961187, "long": -6.27018939098137, "id": 838, "name": "Whitworth Road"}, {"lat": 53.3637449204203, "long": -6.26776341253996, "id": 839, "name": "David Road"}, {"lat": 53.3632433495651, "long": -6.26540966607283, "id": 840, "name": "Claude Road"}, {"lat": 53.3621221995308, "long": -6.26063201536309, "id": 841, "name": "St Patrick's Road"}, {"lat": 53.3600042378903, "long": -6.26085350834049, "id": 49, "name": "Dorset Street Lower"}, {"lat": 53.3578104088118, "long": -6.26327157246547, "id": 51, "name": "Temple Street"}, {"lat": 53.3566607792373, "long": -6.26456528204094, "id": 52, "name": "Dorset Street Upper"}, {"lat": 53.352115616113, "long": -6.26105453403103, "id": 4725, "name": "O'Connell St Upper"}, {"lat": 53.353090589228, "long": -6.26011349990353, "id": 6071, "name": "Parnell Street"}], "40D_104": [{"lat": 53.4190813380993, "long": -6.37826551658187, "id": 7073, "name": "Carlton Hotel"}, {"lat": 53.4201410048362, "long": -6.38483026083255, "id": 7097, "name": "Belgree Boulevard"}, {"lat": 53.4213365810099, "long": -6.38817032190169, "id": 7098, "name": "Mount Eustace"}, {"lat": 53.4217821993041, "long": -6.39122290765649, "id": 7099, "name": "Mount Garrett"}, {"lat": 53.4197588677532, "long": -6.39181084800086, "id": 7100, "name": "Rathmore Cresent"}, {"lat": 53.4182584685745, "long": -6.38718846260958, "id": 7101, "name": "Bealing Walk"}, {"lat": 53.4109617026683, "long": -6.37601723284506, "id": 5071, "name": "Alexion"}, {"lat": 53.4093093811824, "long": -6.37084559393008, "id": 5072, "name": "Corporate Park"}, {"lat": 53.4127668338625, "long": -6.36078495833773, "id": 7342, "name": "Corporate Park 2"}, {"lat": 53.4082421006173, "long": -6.35789047220709, "id": 7125, "name": "Ballycoolin Bus Pk"}, {"lat": 53.4046892107179, "long": -6.35769643124834, "id": 7344, "name": "IDA Ireland"}, {"lat": 53.4021884304085, "long": -6.35558195722211, "id": 2510, "name": "Rosemount Park"}, {"lat": 53.3984085729985, "long": -6.35001323216176, "id": 7242, "name": "Ballycoolin Road"}, {"lat": 53.3971834122747, "long": -6.34461698765796, "id": 7238, "name": "Barnlodge"}, {"lat": 53.3978166587198, "long": -6.33844189162479, "id": 7224, "name": "Stadium Business Pk"}, {"lat": 53.3980680130001, "long": -6.33390564981337, "id": 1581, "name": "Cappagh Cross"}, {"lat": 53.3927698845672, "long": -6.32205359231625, "id": 1582, "name": "Cappagh Road"}, {"lat": 53.3922672634028, "long": -6.32082537531735, "id": 4793, "name": "Avila Park"}, {"lat": 53.3902823798293, "long": -6.31709957382233, "id": 6068, "name": "Ratoath Drive"}, {"lat": 53.3898854600317, "long": -6.31508548205004, "id": 1584, "name": "Abbottstown Road"}, {"lat": 53.3901416743217, "long": -6.31095569222059, "id": 983, "name": "Mellowes Road"}, {"lat": 53.389911388028, "long": -6.30675494955134, "id": 984, "name": "Finglas Garda Stn"}, {"lat": 53.3899247513554, "long": -6.30389772523609, "id": 985, "name": "Finglas Sports Centre"}, {"lat": 53.3884588269294, "long": -6.29815260689773, "id": 1529, "name": "Finglas Village"}, {"lat": 53.3866641413239, "long": -6.29709664327809, "id": 4542, "name": "Finglas Road"}, {"lat": 53.3837436640296, "long": -6.29336474093081, "id": 1531, "name": "Clearwater SC"}, {"lat": 53.3817441172312, "long": -6.29055850090001, "id": 1532, "name": "Prospect Hill"}, {"lat": 53.3789678847602, "long": -6.28749808800206, "id": 1533, "name": "Tolka Vale"}, {"lat": 53.3753328391602, "long": -6.28597560287492, "id": 1534, "name": "Ballyboggan Road"}, {"lat": 53.3723059581397, "long": -6.28236994393795, "id": 1535, "name": "The Willows"}, {"lat": 53.3695033971709, "long": -6.27687723281354, "id": 1536, "name": "Glasnevin Cemetery"}, {"lat": 53.3680662049802, "long": -6.27320839893696, "id": 1537, "name": "St Vincent's School"}, {"lat": 53.3653553426373, "long": -6.27158997755113, "id": 186, "name": "Lindsay Grove"}, {"lat": 53.3643193961187, "long": -6.27018939098137, "id": 838, "name": "Whitworth Road"}, {"lat": 53.3637449204203, "long": -6.26776341253996, "id": 839, "name": "David Road"}, {"lat": 53.3632433495651, "long": -6.26540966607283, "id": 840, "name": "Claude Road"}, {"lat": 53.3621221995308, "long": -6.26063201536309, "id": 841, "name": "St Patrick's Road"}, {"lat": 53.3600042378903, "long": -6.26085350834049, "id": 49, "name": "Dorset Street Lower"}, {"lat": 53.3578104088118, "long": -6.26327157246547, "id": 51, "name": "Temple Street"}, {"lat": 53.3566607792373, "long": -6.26456528204094, "id": 52, "name": "Dorset Street Upper"}, {"lat": 53.352115616113, "long": -6.26105453403103, "id": 4725, "name": "O'Connell St Upper"}, {"lat": 53.353090589228, "long": -6.26011349990353, "id": 6071, "name": "Parnell Street"}], "40D_105": [{"lat": 53.3529076424333, "long": -6.2605115316502, "id": 6004, "name": "Parnell Street"}, {"lat": 53.3528409105808, "long": -6.26457026121744, "id": 7, "name": "Parnell Square West"}, {"lat": 53.3568152335319, "long": -6.26467919507521, "id": 11, "name": "St Joseph's Parade"}, {"lat": 53.3585312378782, "long": -6.26277650570866, "id": 14, "name": "Dorset Street Lower"}, {"lat": 53.3602667075989, "long": -6.26097804267247, "id": 15, "name": "Innisfallen Parade"}, {"lat": 53.3619754108391, "long": -6.26042763798583, "id": 834, "name": "Binns Bridge"}, {"lat": 53.3626280166373, "long": -6.26327096161364, "id": 835, "name": "St Brigid's Rd Lower"}, {"lat": 53.3632915018077, "long": -6.26624916236241, "id": 836, "name": "Claude Road"}, {"lat": 53.3637784077139, "long": -6.26821283704861, "id": 837, "name": "David Road"}, {"lat": 53.3667778214189, "long": -6.27237390919524, "id": 1506, "name": "Finglas Road"}, {"lat": 53.3683905203143, "long": -6.27450269164134, "id": 1507, "name": "St Vincent's School"}, {"lat": 53.3699109022656, "long": -6.27833355115676, "id": 1508, "name": "Glasnevin Cemetery"}, {"lat": 53.3729258340444, "long": -6.28422366048827, "id": 1509, "name": "Slaney Road"}, {"lat": 53.3769069295235, "long": -6.28731023718707, "id": 1510, "name": "Ballyboggan Road"}, {"lat": 53.3782345231803, "long": -6.28775298457063, "id": 1511, "name": "Tolka Vale"}, {"lat": 53.382174322341, "long": -6.29172883549392, "id": 1512, "name": "Prospect Hill"}, {"lat": 53.384474141314, "long": -6.29479375491459, "id": 1538, "name": "Clearwater SC"}, {"lat": 53.3862359182823, "long": -6.29606135967967, "id": 4548, "name": "Finglas Place"}, {"lat": 53.3894651562236, "long": -6.30002191446055, "id": 1514, "name": "Drogheda Mall"}, {"lat": 53.3898045691491, "long": -6.30303046268453, "id": 980, "name": "Finglas Sports Centre"}, {"lat": 53.3897809067965, "long": -6.30706083246075, "id": 981, "name": "Finglas Garda Stn"}, {"lat": 53.3893174054929, "long": -6.31304812471738, "id": 1576, "name": "Cappagh Road"}, {"lat": 53.3898858080568, "long": -6.31574701686641, "id": 1577, "name": "Abbottstown Road"}, {"lat": 53.3903851294561, "long": -6.31801267740448, "id": 1578, "name": "Ratoath Drive"}, {"lat": 53.3929113883209, "long": -6.32252918543631, "id": 4364, "name": "Cappagh Hospital"}, {"lat": 53.3935215772456, "long": -6.32373817662823, "id": 1579, "name": "Cappagh Hospital"}, {"lat": 53.3979032077214, "long": -6.33433315208017, "id": 1580, "name": "Cappagh Cross"}, {"lat": 53.3971412743413, "long": -6.34158100949339, "id": 7237, "name": "Stadium Business Pk"}, {"lat": 53.3977448642458, "long": -6.346865916319, "id": 7241, "name": "Barnlodge"}, {"lat": 53.3987923977988, "long": -6.35177289546406, "id": 7247, "name": "Ballycoolin Road"}, {"lat": 53.403352583087, "long": -6.35788327542562, "id": 7243, "name": "Rosemount Bus. Park"}, {"lat": 53.4058768160178, "long": -6.35647750443813, "id": 7126, "name": "IDA Ireland"}, {"lat": 53.4084344681321, "long": -6.35815381158119, "id": 7124, "name": "Ballycoolin  Bus Pk"}, {"lat": 53.4128446843872, "long": -6.36121821689487, "id": 7343, "name": "Corporate Park 2"}, {"lat": 53.4092575333429, "long": -6.37099799453746, "id": 4978, "name": "Corporate Park"}, {"lat": 53.411336778609, "long": -6.37782310054472, "id": 4979, "name": "Alexion"}, {"lat": 53.4152032703383, "long": -6.38524305833723, "id": 4986, "name": "Curragh Hall"}, {"lat": 53.4170474415293, "long": -6.38603072502407, "id": 7107, "name": "Ballentree Avenue"}, {"lat": 53.4181504664114, "long": -6.38717750516206, "id": 7102, "name": "Bealing Walk"}, {"lat": 53.4198303804533, "long": -6.39311711572295, "id": 7103, "name": "Cruise Park"}, {"lat": 53.4219165430792, "long": -6.39118774250755, "id": 7104, "name": "Mount Garrett"}, {"lat": 53.4213506902989, "long": -6.38788391150304, "id": 7105, "name": "Mount Eustace"}, {"lat": 53.4209886478085, "long": -6.38570089107588, "id": 7106, "name": "Bellgree Avenue"}, {"lat": 53.4199426183244, "long": -6.38345358073983, "id": 6005, "name": "Plaza Apartments"}, {"lat": 53.4266377786801, "long": -6.37083005177164, "id": 7559, "name": "The Oaks"}], "40D_102": [{"lat": 53.3529076424333, "long": -6.2605115316502, "id": 6004, "name": "Parnell Street"}, {"lat": 53.3528409105808, "long": -6.26457026121744, "id": 7, "name": "Parnell Square West"}, {"lat": 53.3568152335319, "long": -6.26467919507521, "id": 11, "name": "St Joseph's Parade"}, {"lat": 53.3585312378782, "long": -6.26277650570866, "id": 14, "name": "Dorset Street Lower"}, {"lat": 53.3602667075989, "long": -6.26097804267247, "id": 15, "name": "Innisfallen Parade"}, {"lat": 53.3619754108391, "long": -6.26042763798583, "id": 834, "name": "Binns Bridge"}, {"lat": 53.3626280166373, "long": -6.26327096161364, "id": 835, "name": "St Brigid's Rd Lower"}, {"lat": 53.3632915018077, "long": -6.26624916236241, "id": 836, "name": "Claude Road"}, {"lat": 53.3637784077139, "long": -6.26821283704861, "id": 837, "name": "David Road"}, {"lat": 53.3667778214189, "long": -6.27237390919524, "id": 1506, "name": "Finglas Road"}, {"lat": 53.3683905203143, "long": -6.27450269164134, "id": 1507, "name": "St Vincent's School"}, {"lat": 53.3699109022656, "long": -6.27833355115676, "id": 1508, "name": "Glasnevin Cemetery"}, {"lat": 53.3729258340444, "long": -6.28422366048827, "id": 1509, "name": "Slaney Road"}, {"lat": 53.3769069295235, "long": -6.28731023718707, "id": 1510, "name": "Ballyboggan Road"}, {"lat": 53.3782345231803, "long": -6.28775298457063, "id": 1511, "name": "Tolka Vale"}, {"lat": 53.382174322341, "long": -6.29172883549392, "id": 1512, "name": "Prospect Hill"}, {"lat": 53.384474141314, "long": -6.29479375491459, "id": 1538, "name": "Clearwater SC"}, {"lat": 53.3862359182823, "long": -6.29606135967967, "id": 4548, "name": "Finglas Place"}, {"lat": 53.3894651562236, "long": -6.30002191446055, "id": 1514, "name": "Drogheda Mall"}, {"lat": 53.3898045691491, "long": -6.30303046268453, "id": 980, "name": "Finglas Sports Centre"}, {"lat": 53.3897809067965, "long": -6.30706083246075, "id": 981, "name": "Finglas Garda Stn"}, {"lat": 53.3893174054929, "long": -6.31304812471738, "id": 1576, "name": "Cappagh Road"}, {"lat": 53.3898858080568, "long": -6.31574701686641, "id": 1577, "name": "Abbottstown Road"}, {"lat": 53.3903851294561, "long": -6.31801267740448, "id": 1578, "name": "Ratoath Drive"}, {"lat": 53.3929113883209, "long": -6.32252918543631, "id": 4364, "name": "Cappagh Hospital"}, {"lat": 53.3935215772456, "long": -6.32373817662823, "id": 1579, "name": "Cappagh Hospital"}, {"lat": 53.3979032077214, "long": -6.33433315208017, "id": 1580, "name": "Cappagh Cross"}, {"lat": 53.3971412743413, "long": -6.34158100949339, "id": 7237, "name": "Stadium Business Pk"}, {"lat": 53.3977448642458, "long": -6.346865916319, "id": 7241, "name": "Barnlodge"}, {"lat": 53.3987923977988, "long": -6.35177289546406, "id": 7247, "name": "Ballycoolin Road"}, {"lat": 53.403352583087, "long": -6.35788327542562, "id": 7243, "name": "Rosemount Bus. Park"}, {"lat": 53.4058768160178, "long": -6.35647750443813, "id": 7126, "name": "IDA Ireland"}, {"lat": 53.4084344681321, "long": -6.35815381158119, "id": 7124, "name": "Ballycoolin  Bus Pk"}, {"lat": 53.4128446843872, "long": -6.36121821689487, "id": 7343, "name": "Corporate Park 2"}, {"lat": 53.4092575333429, "long": -6.37099799453746, "id": 4978, "name": "Corporate Park"}, {"lat": 53.411336778609, "long": -6.37782310054472, "id": 4979, "name": "Alexion"}, {"lat": 53.4152032703383, "long": -6.38524305833723, "id": 4986, "name": "Curragh Hall"}, {"lat": 53.4170474415293, "long": -6.38603072502407, "id": 7107, "name": "Ballentree Avenue"}, {"lat": 53.4181504664114, "long": -6.38717750516206, "id": 7102, "name": "Bealing Walk"}, {"lat": 53.4198303804533, "long": -6.39311711572295, "id": 7103, "name": "Cruise Park"}, {"lat": 53.4219165430792, "long": -6.39118774250755, "id": 7104, "name": "Mount Garrett"}, {"lat": 53.4213506902989, "long": -6.38788391150304, "id": 7105, "name": "Mount Eustace"}, {"lat": 53.4209886478085, "long": -6.38570089107588, "id": 7106, "name": "Bellgree Avenue"}, {"lat": 53.4199426183244, "long": -6.38345358073983, "id": 6005, "name": "Plaza Apartments"}, {"lat": 53.4192687601319, "long": -6.37816811110938, "id": 7072, "name": "Carlton Hotel"}]}