{"41B_52": [{"lat": 53.349168812324, "long": -6.25560170347432, "id": 288, "name": "Irish Life"}, {"lat": 53.3503176870278, "long": -6.25426294905816, "id": 1171, "name": "Gardiner Street Lwr"}, {"lat": 53.3517433497818, "long": -6.25525621732702, "id": 1172, "name": "Railway Street"}, {"lat": 53.3537055683619, "long": -6.25667832329378, "id": 1173, "name": "Gardiner Street Lwr"}, {"lat": 53.3561865814553, "long": -6.25854512541127, "id": 1174, "name": "Mountjoy Sq West"}, {"lat": 53.3584131944675, "long": -6.26084318209763, "id": 1175, "name": "Gardiner Street Upr"}, {"lat": 53.3602667075989, "long": -6.26097804267247, "id": 15, "name": "Innisfallen Parade"}, {"lat": 53.3630783243804, "long": -6.25839928847829, "id": 17, "name": "Drumcondra Rail Stn"}, {"lat": 53.3658559259191, "long": -6.2559568206783, "id": 18, "name": "Dargle Road"}, {"lat": 53.3672348759349, "long": -6.25559994097697, "id": 19, "name": "Botanic Avenue"}, {"lat": 53.3701011992972, "long": -6.25431059904437, "id": 21, "name": "DCU St Patrick's"}, {"lat": 53.3715535144783, "long": -6.2534396446411, "id": 7602, "name": "DCU St Patrick\u2019s"}, {"lat": 53.3739579526161, "long": -6.25191342966416, "id": 85, "name": "Wellpark Avenue"}, {"lat": 53.3763927937161, "long": -6.25001002810668, "id": 203, "name": "Whitehall College"}, {"lat": 53.3795883575696, "long": -6.24666219273756, "id": 204, "name": "Highfield Hospital"}, {"lat": 53.3813753269398, "long": -6.24532604699468, "id": 205, "name": "Iveragh Road"}, {"lat": 53.3832628572909, "long": -6.24410591269657, "id": 1620, "name": "Whitehall Church"}, {"lat": 53.3879405396581, "long": -6.24498084117378, "id": 220, "name": "Swords Road"}, {"lat": 53.3900378357238, "long": -6.24641312764254, "id": 1622, "name": "Shanowen Road"}, {"lat": 53.3919320702424, "long": -6.24626007043483, "id": 1623, "name": "Omni Park SC"}, {"lat": 53.3960819781229, "long": -6.24547287973986, "id": 1624, "name": "Schoolhouse Lane"}, {"lat": 53.4010922757173, "long": -6.2432965687036, "id": 1625, "name": "Morton Stadium"}, {"lat": 53.4041676234164, "long": -6.24034225748838, "id": 1626, "name": "Santry Close"}, {"lat": 53.4082479479251, "long": -6.23788746500041, "id": 1627, "name": "Santry Retail Park"}, {"lat": 53.4137122404046, "long": -6.23907566145023, "id": 1628, "name": "Collinstown Park"}, {"lat": 53.4169466323651, "long": -6.23898714424291, "id": 1629, "name": "Dardistown Cemetery"}, {"lat": 53.4218661028097, "long": -6.23189244440419, "id": 1630, "name": "ALSAA Sports Club"}, {"lat": 53.4245772535053, "long": -6.22985382780062, "id": 3670, "name": "Airport Parking"}, {"lat": 53.429399459773, "long": -6.23016510811246, "id": 3671, "name": "Airport Roundabout"}, {"lat": 53.4321755004888, "long": -6.23007985141057, "id": 3672, "name": "Stockhole Lane"}, {"lat": 53.4410501588941, "long": -6.22788947665299, "id": 3674, "name": "Equestrian Centre"}, {"lat": 53.4433397443476, "long": -6.22833612595684, "id": 3675, "name": "N1 Business Park"}, {"lat": 53.4467824882411, "long": -6.22835845052747, "id": 3676, "name": "Airside"}, {"lat": 53.4506387634233, "long": -6.22354536361078, "id": 5073, "name": "Pinnockhill"}, {"lat": 53.4531503866674, "long": -6.21597187187092, "id": 5074, "name": "Swords Pavilions"}, {"lat": 53.4542368080071, "long": -6.21589621018242, "id": 6054, "name": "Malahide Road"}, {"lat": 53.4547858681153, "long": -6.21835781834225, "id": 4330, "name": "Swords Pavilions SC"}, {"lat": 53.4590816825662, "long": -6.22013572290438, "id": 3679, "name": "Fingal Co Co"}, {"lat": 53.4596633989707, "long": -6.22359026293866, "id": 5075, "name": "Rathbeale Road"}, {"lat": 53.4612534067963, "long": -6.22837339300709, "id": 5076, "name": "Brackenstown Ave"}, {"lat": 53.4620240338837, "long": -6.23124805217434, "id": 3682, "name": "Glasmore Park"}, {"lat": 53.4639991345919, "long": -6.23413306202699, "id": 3864, "name": "Abbylea Close"}, {"lat": 53.4660910636281, "long": -6.23763104891063, "id": 3865, "name": "Daleview Road"}, {"lat": 53.4679888317957, "long": -6.24015831166195, "id": 7133, "name": "Bunbury Gate Avenue"}, {"lat": 53.4721514644547, "long": -6.25187189846976, "id": 7134, "name": "Rathbeale Cottages"}, {"lat": 53.4731849747067, "long": -6.25678572619625, "id": 3867, "name": "New Dairy Lane"}, {"lat": 53.4828147672095, "long": -6.28812439675086, "id": 7135, "name": "Lispopple"}, {"lat": 53.4874392618613, "long": -6.29600046386784, "id": 7136, "name": "Oakhill"}, {"lat": 53.4886435914681, "long": -6.30421062487031, "id": 3874, "name": "Killossery"}], "41B_53": [{"lat": 53.4874074537701, "long": -6.29377141951617, "id": 7144, "name": "Oakhill"}, {"lat": 53.4733308925761, "long": -6.25693039302786, "id": 3881, "name": "New Dairy Lane"}, {"lat": 53.4726344563081, "long": -6.25355434286806, "id": 5096, "name": "Rathbeale Road"}, {"lat": 53.4721731244342, "long": -6.25150946191035, "id": 7145, "name": "Rathbeale Cottages"}, {"lat": 53.4646015443386, "long": -6.23475571196152, "id": 3884, "name": "Pine Grove Park"}, {"lat": 53.4619183810133, "long": -6.23018312491807, "id": 3686, "name": "Rathbeale Crescent"}, {"lat": 53.4610751988294, "long": -6.22726633313043, "id": 5077, "name": "Brackenstown Ave"}, {"lat": 53.4598533729635, "long": -6.2236726918968, "id": 5078, "name": "Watery Lane"}, {"lat": 53.4589359455208, "long": -6.22000628107603, "id": 3689, "name": "Fingal Co Co"}, null, {"lat": 53.4569564215033, "long": -6.22106793165688, "id": 3690, "name": "Swords Main Street"}, {"lat": 53.4530190133113, "long": -6.21560093598474, "id": 5079, "name": "Swords Pavilions"}, {"lat": 53.4489963472981, "long": -6.22673056334099, "id": 3694, "name": "Pinnock Hill"}, {"lat": 53.4470560343454, "long": -6.2280158425078, "id": 3695, "name": "Airside"}, {"lat": 53.443181908583, "long": -6.22799644733441, "id": 3696, "name": "N1 Business Park"}, {"lat": 53.4406857249216, "long": -6.22755841839158, "id": 3697, "name": "Equestrian Centre"}, {"lat": 53.4368181219866, "long": -6.22737321115229, "id": 3698, "name": "Kettles Lane"}, {"lat": 53.4350550460686, "long": -6.2278830896445, "id": 3699, "name": "Stockhole Lane"}, {"lat": 53.4259684912822, "long": -6.22911885211781, "id": 3885, "name": "Airport Parking"}, {"lat": 53.4224056452139, "long": -6.23069639806362, "id": 1631, "name": "ALSAA Sports Club"}, {"lat": 53.4205001547191, "long": -6.23312273044989, "id": 1632, "name": "Toberbunny Lodge"}, {"lat": 53.4196418846322, "long": -6.23464786274613, "id": 5053, "name": "Swords Road"}, {"lat": 53.418132874974, "long": -6.23714772554778, "id": 1633, "name": "Dardistown Cemetery"}, {"lat": 53.4134569583756, "long": -6.23883046648288, "id": 1634, "name": "Collinstown Park"}, {"lat": 53.4117049122348, "long": -6.23887277719418, "id": 1635, "name": "Woodland Ind Est"}, {"lat": 53.4082527144955, "long": -6.23760147278675, "id": 1636, "name": "Turnapin Lane"}, {"lat": 53.404039651401, "long": -6.24019713579677, "id": 1637, "name": "Santry Close"}, {"lat": 53.4017493779661, "long": -6.24214152972318, "id": 1638, "name": "Morton Stadium"}, {"lat": 53.3965093891247, "long": -6.24519965451048, "id": 1639, "name": "Schoolhouse Lane"}, {"lat": 53.3923505009685, "long": -6.24598724998319, "id": 1640, "name": "Omni Park SC"}, {"lat": 53.3892400769873, "long": -6.24594976380667, "id": 231, "name": "Shanvarna Road Est"}, {"lat": 53.3865272844368, "long": -6.24239296645785, "id": 1641, "name": "Ellenfield Park"}, {"lat": 53.383947889346, "long": -6.24362672228704, "id": 1642, "name": "Whitehall Church"}, {"lat": 53.381449544026, "long": -6.24487202356891, "id": 213, "name": "Iveragh Road"}, {"lat": 53.3794084835756, "long": -6.24665455182551, "id": 214, "name": "Highfield Hospital"}, {"lat": 53.3772074698895, "long": -6.248563718842, "id": 4432, "name": "Griffith Downs"}, {"lat": 53.3751904807261, "long": -6.25076574528229, "id": 119, "name": "The Village"}, {"lat": 53.3730174091229, "long": -6.25213230324291, "id": 44, "name": "Skylon Hotel"}, {"lat": 53.371576725454, "long": -6.2531832038883, "id": 7603, "name": "St Patrick's College"}, {"lat": 53.3699364344031, "long": -6.25410694084961, "id": 45, "name": "DCU St Patrick's"}, {"lat": 53.3671310162176, "long": -6.25525855655008, "id": 46, "name": "Botanic Avenue"}, {"lat": 53.3639161189952, "long": -6.25729825652797, "id": 47, "name": "Drumcondra Rail Stn"}, {"lat": 53.3622573901253, "long": -6.25880841233312, "id": 48, "name": "Fitzroy Avenue"}, {"lat": 53.3600042378903, "long": -6.26085350834049, "id": 49, "name": "Dorset Street Lower"}, {"lat": 53.3578104088118, "long": -6.26327157246547, "id": 51, "name": "Temple Street"}, {"lat": 53.3566607792373, "long": -6.26456528204094, "id": 52, "name": "Dorset Street Upper"}, {"lat": 53.3508223258205, "long": -6.26050631978687, "id": 277, "name": "O'Connell St Upper"}, {"lat": 53.349168812324, "long": -6.25560170347432, "id": 288, "name": "Irish Life"}], "41B_51": [{"lat": 53.349168812324, "long": -6.25560170347432, "id": 288, "name": "Irish Life"}, {"lat": 53.3503176870278, "long": -6.25426294905816, "id": 1171, "name": "Gardiner Street Lwr"}, {"lat": 53.3517433497818, "long": -6.25525621732702, "id": 1172, "name": "Railway Street"}, {"lat": 53.3537055683619, "long": -6.25667832329378, "id": 1173, "name": "Gardiner Street Lwr"}, {"lat": 53.3561865814553, "long": -6.25854512541127, "id": 1174, "name": "Mountjoy Sq West"}, {"lat": 53.3584131944675, "long": -6.26084318209763, "id": 1175, "name": "Gardiner Street Upr"}, {"lat": 53.3602667075989, "long": -6.26097804267247, "id": 15, "name": "Innisfallen Parade"}, {"lat": 53.3630783243804, "long": -6.25839928847829, "id": 17, "name": "Drumcondra Rail Stn"}, {"lat": 53.3658559259191, "long": -6.2559568206783, "id": 18, "name": "Dargle Road"}, {"lat": 53.3672348759349, "long": -6.25559994097697, "id": 19, "name": "Botanic Avenue"}, {"lat": 53.3701011992972, "long": -6.25431059904437, "id": 21, "name": "DCU St Patrick's"}, {"lat": 53.3715535144783, "long": -6.2534396446411, "id": 7602, "name": "DCU St Patrick\u2019s"}, {"lat": 53.3739579526161, "long": -6.25191342966416, "id": 85, "name": "Wellpark Avenue"}, {"lat": 53.3763927937161, "long": -6.25001002810668, "id": 203, "name": "Whitehall College"}, {"lat": 53.3795883575696, "long": -6.24666219273756, "id": 204, "name": "Highfield Hospital"}, {"lat": 53.3813753269398, "long": -6.24532604699468, "id": 205, "name": "Iveragh Road"}, {"lat": 53.3832628572909, "long": -6.24410591269657, "id": 1620, "name": "Whitehall Church"}, {"lat": 53.3879405396581, "long": -6.24498084117378, "id": 220, "name": "Swords Road"}, {"lat": 53.3900378357238, "long": -6.24641312764254, "id": 1622, "name": "Shanowen Road"}, {"lat": 53.3919320702424, "long": -6.24626007043483, "id": 1623, "name": "Omni Park SC"}, {"lat": 53.3960819781229, "long": -6.24547287973986, "id": 1624, "name": "Schoolhouse Lane"}, {"lat": 53.4010922757173, "long": -6.2432965687036, "id": 1625, "name": "Morton Stadium"}, {"lat": 53.4041676234164, "long": -6.24034225748838, "id": 1626, "name": "Santry Close"}, {"lat": 53.4082479479251, "long": -6.23788746500041, "id": 1627, "name": "Santry Retail Park"}, {"lat": 53.4137122404046, "long": -6.23907566145023, "id": 1628, "name": "Collinstown Park"}, {"lat": 53.4169466323651, "long": -6.23898714424291, "id": 1629, "name": "Dardistown Cemetery"}, {"lat": 53.4218661028097, "long": -6.23189244440419, "id": 1630, "name": "ALSAA Sports Club"}, {"lat": 53.4277439774233, "long": -6.24161073929692, "id": 7348, "name": "Dublin Airport"}, {"lat": 53.429399459773, "long": -6.23016510811246, "id": 3671, "name": "Airport Roundabout"}, {"lat": 53.4321755004888, "long": -6.23007985141057, "id": 3672, "name": "Stockhole Lane"}, {"lat": 53.4410501588941, "long": -6.22788947665299, "id": 3674, "name": "Equestrian Centre"}, {"lat": 53.4433397443476, "long": -6.22833612595684, "id": 3675, "name": "N1 Business Park"}, {"lat": 53.4467824882411, "long": -6.22835845052747, "id": 3676, "name": "Airside"}, {"lat": 53.4506387634233, "long": -6.22354536361078, "id": 5073, "name": "Pinnockhill"}, {"lat": 53.4531503866674, "long": -6.21597187187092, "id": 5074, "name": "Swords Pavilions"}, {"lat": 53.4542368080071, "long": -6.21589621018242, "id": 6054, "name": "Malahide Road"}, {"lat": 53.4547858681153, "long": -6.21835781834225, "id": 4330, "name": "Swords Pavilions SC"}, {"lat": 53.4590816825662, "long": -6.22013572290438, "id": 3679, "name": "Fingal Co Co"}, {"lat": 53.4596633989707, "long": -6.22359026293866, "id": 5075, "name": "Rathbeale Road"}, {"lat": 53.4612534067963, "long": -6.22837339300709, "id": 5076, "name": "Brackenstown Ave"}, {"lat": 53.4620240338837, "long": -6.23124805217434, "id": 3682, "name": "Glasmore Park"}, {"lat": 53.4639991345919, "long": -6.23413306202699, "id": 3864, "name": "Abbylea Close"}, {"lat": 53.4660910636281, "long": -6.23763104891063, "id": 3865, "name": "Daleview Road"}, {"lat": 53.4679888317957, "long": -6.24015831166195, "id": 7133, "name": "Bunbury Gate Avenue"}, {"lat": 53.4721514644547, "long": -6.25187189846976, "id": 7134, "name": "Rathbeale Cottages"}, {"lat": 53.4731849747067, "long": -6.25678572619625, "id": 3867, "name": "New Dairy Lane"}, {"lat": 53.4828147672095, "long": -6.28812439675086, "id": 7135, "name": "Lispopple"}, {"lat": 53.4874392618613, "long": -6.29600046386784, "id": 7136, "name": "Oakhill"}, {"lat": 53.4886435914681, "long": -6.30421062487031, "id": 3874, "name": "Killossery"}], "41B_58": [{"lat": 53.349168812324, "long": -6.25560170347432, "id": 288, "name": "Irish Life"}, {"lat": 53.3503176870278, "long": -6.25426294905816, "id": 1171, "name": "Gardiner Street Lwr"}, {"lat": 53.3517433497818, "long": -6.25525621732702, "id": 1172, "name": "Railway Street"}, {"lat": 53.3537055683619, "long": -6.25667832329378, "id": 1173, "name": "Gardiner Street Lwr"}, {"lat": 53.3561865814553, "long": -6.25854512541127, "id": 1174, "name": "Mountjoy Sq West"}, {"lat": 53.3584131944675, "long": -6.26084318209763, "id": 1175, "name": "Gardiner Street Upr"}, {"lat": 53.3602667075989, "long": -6.26097804267247, "id": 15, "name": "Innisfallen Parade"}, {"lat": 53.3630783243804, "long": -6.25839928847829, "id": 17, "name": "Drumcondra Rail Stn"}, {"lat": 53.3658559259191, "long": -6.2559568206783, "id": 18, "name": "Dargle Road"}, {"lat": 53.3672348759349, "long": -6.25559994097697, "id": 19, "name": "Botanic Avenue"}, {"lat": 53.3701011992972, "long": -6.25431059904437, "id": 21, "name": "DCU St Patrick's"}, {"lat": 53.3715535144783, "long": -6.2534396446411, "id": 7602, "name": "DCU St Patrick\u2019s"}, {"lat": 53.3739579526161, "long": -6.25191342966416, "id": 85, "name": "Wellpark Avenue"}, {"lat": 53.3763927937161, "long": -6.25001002810668, "id": 203, "name": "Whitehall College"}, {"lat": 53.3795883575696, "long": -6.24666219273756, "id": 204, "name": "Highfield Hospital"}, {"lat": 53.3813753269398, "long": -6.24532604699468, "id": 205, "name": "Iveragh Road"}, {"lat": 53.3832628572909, "long": -6.24410591269657, "id": 1620, "name": "Whitehall Church"}, {"lat": 53.3879405396581, "long": -6.24498084117378, "id": 220, "name": "Swords Road"}, {"lat": 53.3900378357238, "long": -6.24641312764254, "id": 1622, "name": "Shanowen Road"}, {"lat": 53.3919320702424, "long": -6.24626007043483, "id": 1623, "name": "Omni Park SC"}, {"lat": 53.3960819781229, "long": -6.24547287973986, "id": 1624, "name": "Schoolhouse Lane"}, {"lat": 53.4010922757173, "long": -6.2432965687036, "id": 1625, "name": "Morton Stadium"}, {"lat": 53.4041676234164, "long": -6.24034225748838, "id": 1626, "name": "Santry Close"}, {"lat": 53.4082479479251, "long": -6.23788746500041, "id": 1627, "name": "Santry Retail Park"}, {"lat": 53.4137122404046, "long": -6.23907566145023, "id": 1628, "name": "Collinstown Park"}, {"lat": 53.4169466323651, "long": -6.23898714424291, "id": 1629, "name": "Dardistown Cemetery"}, {"lat": 53.4218661028097, "long": -6.23189244440419, "id": 1630, "name": "ALSAA Sports Club"}, {"lat": 53.4277439774233, "long": -6.24161073929692, "id": 7348, "name": "Dublin Airport"}, {"lat": 53.429399459773, "long": -6.23016510811246, "id": 3671, "name": "Airport Roundabout"}, {"lat": 53.4321755004888, "long": -6.23007985141057, "id": 3672, "name": "Stockhole Lane"}, {"lat": 53.4410501588941, "long": -6.22788947665299, "id": 3674, "name": "Equestrian Centre"}, {"lat": 53.4433397443476, "long": -6.22833612595684, "id": 3675, "name": "N1 Business Park"}, {"lat": 53.4467824882411, "long": -6.22835845052747, "id": 3676, "name": "Airside"}, {"lat": 53.4506387634233, "long": -6.22354536361078, "id": 5073, "name": "Pinnockhill"}, {"lat": 53.4531503866674, "long": -6.21597187187092, "id": 5074, "name": "Swords Pavilions"}, {"lat": 53.4542368080071, "long": -6.21589621018242, "id": 6054, "name": "Malahide Road"}, {"lat": 53.4547858681153, "long": -6.21835781834225, "id": 4330, "name": "Swords Pavilions SC"}, {"lat": 53.4590816825662, "long": -6.22013572290438, "id": 3679, "name": "Fingal Co Co"}, {"lat": 53.4596633989707, "long": -6.22359026293866, "id": 5075, "name": "Rathbeale Road"}, {"lat": 53.4612534067963, "long": -6.22837339300709, "id": 5076, "name": "Brackenstown Ave"}, {"lat": 53.4620240338837, "long": -6.23124805217434, "id": 3682, "name": "Glasmore Park"}, {"lat": 53.4639991345919, "long": -6.23413306202699, "id": 3864, "name": "Abbylea Close"}, {"lat": 53.4660910636281, "long": -6.23763104891063, "id": 3865, "name": "Daleview Road"}, {"lat": 53.4666353557668, "long": -6.23919005972803, "id": 4910, "name": "Ardcian Park"}, {"lat": 53.465608580099, "long": -6.23965430192359, "id": 4911, "name": "Cianlea"}, {"lat": 53.4641395520328, "long": -6.23938373670601, "id": 4912, "name": "Lioscian"}, {"lat": 53.4616191268966, "long": -6.24034650281357, "id": 4913, "name": "St Cronan's Avenue"}, {"lat": 53.4598517742589, "long": -6.24179006571866, "id": 4914, "name": "Valley View"}, {"lat": 53.4598629874306, "long": -6.24499740034946, "id": 4915, "name": "Ormond Avenue"}, {"lat": 53.4596261516859, "long": -6.25091068551703, "id": 4957, "name": "Abbeyvale"}, {"lat": 53.4679888317957, "long": -6.24015831166195, "id": 7133, "name": "Bunbury Gate Avenue"}, {"lat": 53.4721514644547, "long": -6.25187189846976, "id": 7134, "name": "Rathbeale Cottages"}, {"lat": 53.4731849747067, "long": -6.25678572619625, "id": 3867, "name": "New Dairy Lane"}, {"lat": 53.4828147672095, "long": -6.28812439675086, "id": 7135, "name": "Lispopple"}, {"lat": 53.4874392618613, "long": -6.29600046386784, "id": 7136, "name": "Oakhill"}, {"lat": 53.4886435914681, "long": -6.30421062487031, "id": 3874, "name": "Killossery"}]}