{"45A_60": [null, {"lat": 53.2927911878307, "long": -6.13536904926544, "id": 2040, "name": "Dun Laoghaire SC"}, {"lat": 53.2901702910815, "long": -6.1310130392851, "id": 3047, "name": "George's St Upper"}, {"lat": 53.2888504756656, "long": -6.12996064936531, "id": 3202, "name": "Glenageary Rd Lower"}, {"lat": 53.2852204971734, "long": -6.13233901798263, "id": 3203, "name": "Traverslea Close"}, {"lat": 53.2824353372615, "long": -6.13414025296547, "id": 3204, "name": "Silchester Park"}, {"lat": 53.2793911386587, "long": -6.1371972559117, "id": 3205, "name": "Sallynoggin Road"}, {"lat": 53.2782322995408, "long": -6.13954210333348, "id": 3206, "name": "Honey Park"}, null, null, {"lat": 53.2741733398162, "long": -6.14844545130621, "id": 3243, "name": "Somerton"}, {"lat": 53.2725500612644, "long": -6.14578664145038, "id": 3244, "name": "Garden Centre"}, {"lat": 53.2706836138455, "long": -6.14252382818304, "id": 3245, "name": "Johnstown Road"}, {"lat": 53.2691150351549, "long": -6.13992305144187, "id": 3212, "name": "Granitefield"}, {"lat": 53.267061992522, "long": -6.13623408218761, "id": 3213, "name": "Killiney SC"}, {"lat": 53.2646008432281, "long": -6.13461709780435, "id": 3214, "name": "Churchview Road"}, {"lat": 53.2620312700783, "long": -6.13756219248251, "id": 3215, "name": "Auburn Drive"}, {"lat": 53.2588723069006, "long": -6.1378793432369, "id": 3216, "name": "Kilbogget Park"}, {"lat": 53.2570425975944, "long": -6.13583040408577, "id": 3217, "name": "Ballybrack SC"}, {"lat": 53.2549234444038, "long": -6.13252024013518, "id": 3218, "name": "Pinewood"}, null, {"lat": 53.2568175242791, "long": -6.12720659406664, "id": 3535, "name": "Church Road"}, {"lat": 53.2538610846826, "long": -6.12496767711338, "id": 3536, "name": "Ballybrack Village"}, {"lat": 53.2519528920837, "long": -6.12365732889128, "id": 3537, "name": "Ballybrack Cross"}, {"lat": 53.2496624405552, "long": -6.12318808857716, "id": 3538, "name": "Sheelin Estate"}, {"lat": 53.2480439849055, "long": -6.12315403365151, "id": 7556, "name": "The Elms"}, {"lat": 53.2440183365468, "long": -6.12151711523642, "id": 3539, "name": "River Close"}, {"lat": 53.2426809255031, "long": -6.12163563524093, "id": 3540, "name": "Shanganagh Bridge"}, {"lat": 53.2388260877792, "long": -6.12285324474744, "id": 3541, "name": "Hazelwood"}, {"lat": 53.2364001688533, "long": -6.12291446549235, "id": 3542, "name": "Rathsallagh"}, {"lat": 53.2337286400103, "long": -6.1233609435765, "id": 3543, "name": "St Anne's Church"}, {"lat": 53.2300638456036, "long": -6.1240904706735, "id": 3139, "name": "Stonebridge Close"}, {"lat": 53.2278303200561, "long": -6.12438284585774, "id": 4124, "name": "Claremount"}, {"lat": 53.2234316454002, "long": -6.1236015801599, "id": 4125, "name": "Shanganagh Castle"}, {"lat": 53.2221831727114, "long": -6.12194881112964, "id": 4126, "name": "Shanganagh Cemetery"}, {"lat": 53.2187787041551, "long": -6.11980650872771, "id": 4127, "name": "St James's Church"}, {"lat": 53.2159235278162, "long": -6.11943740756946, "id": 4128, "name": "Woodbrook College"}, {"lat": 53.2108556391326, "long": -6.11726373758896, "id": 4129, "name": "Old Connaught Avenue"}, {"lat": 53.2072817956956, "long": -6.11351284781385, "id": 4130, "name": "Castle Street"}, {"lat": 53.2065671431512, "long": -6.11152310823596, "id": 4131, "name": "Dwyer Park"}, {"lat": 53.2047244539015, "long": -6.10925373679255, "id": 7294, "name": "Cornerstone Church"}, {"lat": 53.2049673829616, "long": -6.10361400629363, "id": 4156, "name": "Quinsborough Road"}, null, {"lat": 53.203483770056, "long": -6.10697299154263, "id": 4170, "name": "Methodist Church"}, {"lat": 53.2023004727949, "long": -6.11000415983853, "id": 4132, "name": "Bray Main Street"}, {"lat": 53.1975733556208, "long": -6.10892488943039, "id": 4134, "name": "Church Road"}, {"lat": 53.19464638278, "long": -6.10686852204679, "id": 4135, "name": "Lauderdale"}, {"lat": 53.1922528970764, "long": -6.10501339216555, "id": 4136, "name": "Putland Road"}, null, null, null, null, null, {"lat": 53.189045835275, "long": -6.12615109959763, "id": 4175, "name": "St Fergal's Church"}, {"lat": 53.1879238915683, "long": -6.12739721376408, "id": 5091, "name": "Ballywaltrim Heights"}, {"lat": 53.1858287286821, "long": -6.12905974567307, "id": 5092, "name": "Springfield Cemetery"}, null], "45A_64": [{"lat": 53.1695051592648, "long": -6.13648641234374, "id": 4533, "name": "Kilmacanogue"}, {"lat": 53.1743757146269, "long": -6.13928227932353, "id": 4844, "name": "Glencormack Road"}, {"lat": 53.1860998442124, "long": -6.12915269137745, "id": 4177, "name": "Springfield Cemetery"}, {"lat": 53.1880862794519, "long": -6.12743503167698, "id": 4178, "name": "Ballywaltrim Heights"}, null, null, null, null, null, null, {"lat": 53.1935632830355, "long": -6.10658697988633, "id": 4149, "name": "Putland Road"}, {"lat": 53.197430826872, "long": -6.10900600524937, "id": 3045, "name": "Church Road"}, {"lat": 53.200116633706, "long": -6.1105942403025, "id": 4150, "name": "Vevay Road"}, {"lat": 53.2018686482646, "long": -6.11054710423244, "id": 4151, "name": "Bray Main Street"}, {"lat": 53.2031235167519, "long": -6.10975835625962, "id": 2997, "name": "Florence Road"}, {"lat": 53.2049673829616, "long": -6.10361400629363, "id": 4156, "name": "Quinsborough Road"}, null, {"lat": 53.203483770056, "long": -6.10697299154263, "id": 4170, "name": "Methodist Church"}, {"lat": 53.2048906454772, "long": -6.1095308647775, "id": 4153, "name": "Cornerstone Church"}, {"lat": 53.2066340780954, "long": -6.11234359174607, "id": 4154, "name": "St Cronan's Road"}, {"lat": 53.2083438702134, "long": -6.11473880507392, "id": 4416, "name": "Roseville Court"}, {"lat": 53.2111253457478, "long": -6.11783585565894, "id": 4201, "name": "Old Connaught Avenue"}, {"lat": 53.2160003459128, "long": -6.11974850993044, "id": 4202, "name": "Woodbrook College"}, {"lat": 53.2197605963327, "long": -6.12051229350618, "id": 4203, "name": "St James's Church"}, {"lat": 53.2217038088661, "long": -6.12176011528158, "id": 5090, "name": "Shanganagh Cemetery"}, {"lat": 53.2233240936238, "long": -6.12362125997845, "id": 4204, "name": "Shanganagh Castle"}, {"lat": 53.2245394732772, "long": -6.12488614796323, "id": 4205, "name": "Crinken Lane"}, {"lat": 53.2275029229311, "long": -6.12471170908811, "id": 4206, "name": "Claremount"}, {"lat": 53.2297600975681, "long": -6.12420860762246, "id": 3140, "name": "Stonebridge Close"}, null, {"lat": 53.2372028920208, "long": -6.12308908529293, "id": 3552, "name": "Rathsallagh"}, {"lat": 53.2390265275583, "long": -6.12302426441118, "id": 3553, "name": "Hazelwood"}, {"lat": 53.2428981515326, "long": -6.12173100876907, "id": 3554, "name": "Shanganagh Bridge"}, {"lat": 53.2449122993181, "long": -6.12177764830752, "id": 3555, "name": "Aran Avenue"}, {"lat": 53.2481179653389, "long": -6.12328566799662, "id": 3556, "name": "The Elms"}, {"lat": 53.2493962745787, "long": -6.12340954850205, "id": 3557, "name": "Sheelin Estate"}, null, null, null, {"lat": 53.2552948672851, "long": -6.13385300991221, "id": 3225, "name": "Ballybrack SC"}, {"lat": 53.2585470715912, "long": -6.13777355798243, "id": 3226, "name": "Kilbogget Park"}, {"lat": 53.2619541741584, "long": -6.13780539377764, "id": 3227, "name": "Auburn Drive"}, {"lat": 53.2647542453765, "long": -6.13465539470502, "id": 3228, "name": "Church Road"}, {"lat": 53.2653527759427, "long": -6.13441945272899, "id": 3229, "name": "Churchview Road"}, {"lat": 53.2670680823354, "long": -6.13662362130875, "id": 7472, "name": "Killiney SC"}, {"lat": 53.2685015291178, "long": -6.13920003918439, "id": 3230, "name": "Drumkeen Manor"}, {"lat": 53.2700894891205, "long": -6.14188987343802, "id": 3231, "name": "Granitefield"}, {"lat": 53.2710762760995, "long": -6.14349639706772, "id": 3246, "name": "Johnstown Road"}, {"lat": 53.2726452445483, "long": -6.14612739248417, "id": 3247, "name": "Garden Centre"}, {"lat": 53.2735313073473, "long": -6.14761850492034, "id": 7056, "name": "Somerton"}, null, null, {"lat": 53.2779835040123, "long": -6.14030272461487, "id": 3236, "name": "Honey Park"}, {"lat": 53.2791423584346, "long": -6.13795791119735, "id": 3237, "name": "Sarsfield Street"}, {"lat": 53.283309733396, "long": -6.13372719850771, "id": 3238, "name": "Holmston Avenue"}, {"lat": 53.2843864951823, "long": -6.13303533097992, "id": 3239, "name": "Crosthwaite Park"}, {"lat": 53.2871718711238, "long": -6.13124892862004, "id": 3240, "name": "Corrig Road"}, {"lat": 53.2898294885121, "long": -6.13048790165208, "id": 3068, "name": "George's St Upper"}, {"lat": 53.2907530253444, "long": -6.13263768269568, "id": 3069, "name": "Corrig Avenue"}, {"lat": 53.2921151004321, "long": -6.13581853383444, "id": 3070, "name": "Dun Laoghaire SC"}, null], "45A_70": [{"lat": 53.1695051592648, "long": -6.13648641234374, "id": 4533, "name": "Kilmacanogue"}, {"lat": 53.1743757146269, "long": -6.13928227932353, "id": 4844, "name": "Glencormack Road"}, {"lat": 53.1860998442124, "long": -6.12915269137745, "id": 4177, "name": "Springfield Cemetery"}, {"lat": 53.1880862794519, "long": -6.12743503167698, "id": 4178, "name": "Ballywaltrim Heights"}, null, null, null, null, null, {"lat": 53.1893031302272, "long": -6.10265923441757, "id": 4304, "name": "St Andrew's NS"}, {"lat": 53.1917841549188, "long": -6.10492930326017, "id": 4148, "name": "Wolfe Tone Square"}, {"lat": 53.1935632830355, "long": -6.10658697988633, "id": 4149, "name": "Putland Road"}, {"lat": 53.197430826872, "long": -6.10900600524937, "id": 3045, "name": "Church Road"}, {"lat": 53.200116633706, "long": -6.1105942403025, "id": 4150, "name": "Vevay Road"}, {"lat": 53.2018686482646, "long": -6.11054710423244, "id": 4151, "name": "Bray Main Street"}, {"lat": 53.2031235167519, "long": -6.10975835625962, "id": 2997, "name": "Florence Road"}, {"lat": 53.2049673829616, "long": -6.10361400629363, "id": 4156, "name": "Quinsborough Road"}, null, {"lat": 53.203483770056, "long": -6.10697299154263, "id": 4170, "name": "Methodist Church"}, {"lat": 53.2048906454772, "long": -6.1095308647775, "id": 4153, "name": "Cornerstone Church"}, {"lat": 53.2066340780954, "long": -6.11234359174607, "id": 4154, "name": "St Cronan's Road"}, {"lat": 53.2083438702134, "long": -6.11473880507392, "id": 4416, "name": "Roseville Court"}, {"lat": 53.2111253457478, "long": -6.11783585565894, "id": 4201, "name": "Old Connaught Avenue"}, {"lat": 53.2160003459128, "long": -6.11974850993044, "id": 4202, "name": "Woodbrook College"}, {"lat": 53.2197605963327, "long": -6.12051229350618, "id": 4203, "name": "St James's Church"}, {"lat": 53.2217038088661, "long": -6.12176011528158, "id": 5090, "name": "Shanganagh Cemetery"}, {"lat": 53.2233240936238, "long": -6.12362125997845, "id": 4204, "name": "Shanganagh Castle"}, {"lat": 53.2245394732772, "long": -6.12488614796323, "id": 4205, "name": "Crinken Lane"}, {"lat": 53.2275029229311, "long": -6.12471170908811, "id": 4206, "name": "Claremount"}, {"lat": 53.2297600975681, "long": -6.12420860762246, "id": 3140, "name": "Stonebridge Close"}, null, {"lat": 53.2372028920208, "long": -6.12308908529293, "id": 3552, "name": "Rathsallagh"}, {"lat": 53.2390265275583, "long": -6.12302426441118, "id": 3553, "name": "Hazelwood"}, {"lat": 53.2428981515326, "long": -6.12173100876907, "id": 3554, "name": "Shanganagh Bridge"}, {"lat": 53.2449122993181, "long": -6.12177764830752, "id": 3555, "name": "Aran Avenue"}, {"lat": 53.2481179653389, "long": -6.12328566799662, "id": 3556, "name": "The Elms"}, {"lat": 53.2493962745787, "long": -6.12340954850205, "id": 3557, "name": "Sheelin Estate"}, null, null, null, {"lat": 53.2552948672851, "long": -6.13385300991221, "id": 3225, "name": "Ballybrack SC"}, {"lat": 53.2585470715912, "long": -6.13777355798243, "id": 3226, "name": "Kilbogget Park"}, {"lat": 53.2619541741584, "long": -6.13780539377764, "id": 3227, "name": "Auburn Drive"}, {"lat": 53.2647542453765, "long": -6.13465539470502, "id": 3228, "name": "Church Road"}, {"lat": 53.2653527759427, "long": -6.13441945272899, "id": 3229, "name": "Churchview Road"}, {"lat": 53.2670680823354, "long": -6.13662362130875, "id": 7472, "name": "Killiney SC"}, {"lat": 53.2685015291178, "long": -6.13920003918439, "id": 3230, "name": "Drumkeen Manor"}, {"lat": 53.2700894891205, "long": -6.14188987343802, "id": 3231, "name": "Granitefield"}, {"lat": 53.2710762760995, "long": -6.14349639706772, "id": 3246, "name": "Johnstown Road"}, {"lat": 53.2726452445483, "long": -6.14612739248417, "id": 3247, "name": "Garden Centre"}, {"lat": 53.2735313073473, "long": -6.14761850492034, "id": 7056, "name": "Somerton"}, null, null, {"lat": 53.2779835040123, "long": -6.14030272461487, "id": 3236, "name": "Honey Park"}, {"lat": 53.2791423584346, "long": -6.13795791119735, "id": 3237, "name": "Sarsfield Street"}, {"lat": 53.283309733396, "long": -6.13372719850771, "id": 3238, "name": "Holmston Avenue"}, {"lat": 53.2843864951823, "long": -6.13303533097992, "id": 3239, "name": "Crosthwaite Park"}, {"lat": 53.2871718711238, "long": -6.13124892862004, "id": 3240, "name": "Corrig Road"}, {"lat": 53.2898294885121, "long": -6.13048790165208, "id": 3068, "name": "George's St Upper"}, {"lat": 53.2907530253444, "long": -6.13263768269568, "id": 3069, "name": "Corrig Avenue"}, {"lat": 53.2921151004321, "long": -6.13581853383444, "id": 3070, "name": "Dun Laoghaire SC"}, null], "45A_68": [null, {"lat": 53.2927911878307, "long": -6.13536904926544, "id": 2040, "name": "Dun Laoghaire SC"}, {"lat": 53.2901702910815, "long": -6.1310130392851, "id": 3047, "name": "George's St Upper"}, {"lat": 53.2888504756656, "long": -6.12996064936531, "id": 3202, "name": "Glenageary Rd Lower"}, {"lat": 53.2852204971734, "long": -6.13233901798263, "id": 3203, "name": "Traverslea Close"}, {"lat": 53.2824353372615, "long": -6.13414025296547, "id": 3204, "name": "Silchester Park"}, {"lat": 53.2793911386587, "long": -6.1371972559117, "id": 3205, "name": "Sallynoggin Road"}, {"lat": 53.2782322995408, "long": -6.13954210333348, "id": 3206, "name": "Honey Park"}, null, null, {"lat": 53.2741733398162, "long": -6.14844545130621, "id": 3243, "name": "Somerton"}, {"lat": 53.2725500612644, "long": -6.14578664145038, "id": 3244, "name": "Garden Centre"}, {"lat": 53.2706836138455, "long": -6.14252382818304, "id": 3245, "name": "Johnstown Road"}, {"lat": 53.2691150351549, "long": -6.13992305144187, "id": 3212, "name": "Granitefield"}, {"lat": 53.267061992522, "long": -6.13623408218761, "id": 3213, "name": "Killiney SC"}, {"lat": 53.2646008432281, "long": -6.13461709780435, "id": 3214, "name": "Churchview Road"}, {"lat": 53.2620312700783, "long": -6.13756219248251, "id": 3215, "name": "Auburn Drive"}, {"lat": 53.2588723069006, "long": -6.1378793432369, "id": 3216, "name": "Kilbogget Park"}, {"lat": 53.2570425975944, "long": -6.13583040408577, "id": 3217, "name": "Ballybrack SC"}, {"lat": 53.2549234444038, "long": -6.13252024013518, "id": 3218, "name": "Pinewood"}, null, {"lat": 53.2568175242791, "long": -6.12720659406664, "id": 3535, "name": "Church Road"}, {"lat": 53.2538610846826, "long": -6.12496767711338, "id": 3536, "name": "Ballybrack Village"}, {"lat": 53.2519528920837, "long": -6.12365732889128, "id": 3537, "name": "Ballybrack Cross"}, {"lat": 53.2496624405552, "long": -6.12318808857716, "id": 3538, "name": "Sheelin Estate"}, {"lat": 53.2480439849055, "long": -6.12315403365151, "id": 7556, "name": "The Elms"}, {"lat": 53.2440183365468, "long": -6.12151711523642, "id": 3539, "name": "River Close"}, {"lat": 53.2426809255031, "long": -6.12163563524093, "id": 3540, "name": "Shanganagh Bridge"}, {"lat": 53.2388260877792, "long": -6.12285324474744, "id": 3541, "name": "Hazelwood"}, {"lat": 53.2364001688533, "long": -6.12291446549235, "id": 3542, "name": "Rathsallagh"}, {"lat": 53.2337286400103, "long": -6.1233609435765, "id": 3543, "name": "St Anne's Church"}, {"lat": 53.2300638456036, "long": -6.1240904706735, "id": 3139, "name": "Stonebridge Close"}, {"lat": 53.2278303200561, "long": -6.12438284585774, "id": 4124, "name": "Claremount"}, {"lat": 53.2234316454002, "long": -6.1236015801599, "id": 4125, "name": "Shanganagh Castle"}, {"lat": 53.2221831727114, "long": -6.12194881112964, "id": 4126, "name": "Shanganagh Cemetery"}, {"lat": 53.2187787041551, "long": -6.11980650872771, "id": 4127, "name": "St James's Church"}, {"lat": 53.2159235278162, "long": -6.11943740756946, "id": 4128, "name": "Woodbrook College"}, {"lat": 53.2108556391326, "long": -6.11726373758896, "id": 4129, "name": "Old Connaught Avenue"}, {"lat": 53.2072817956956, "long": -6.11351284781385, "id": 4130, "name": "Castle Street"}, {"lat": 53.2065671431512, "long": -6.11152310823596, "id": 4131, "name": "Dwyer Park"}, {"lat": 53.2047244539015, "long": -6.10925373679255, "id": 7294, "name": "Cornerstone Church"}, {"lat": 53.2049673829616, "long": -6.10361400629363, "id": 4156, "name": "Quinsborough Road"}, null, {"lat": 53.203483770056, "long": -6.10697299154263, "id": 4170, "name": "Methodist Church"}, {"lat": 53.2023004727949, "long": -6.11000415983853, "id": 4132, "name": "Bray Main Street"}, {"lat": 53.1975733556208, "long": -6.10892488943039, "id": 4134, "name": "Church Road"}, {"lat": 53.19464638278, "long": -6.10686852204679, "id": 4135, "name": "Lauderdale"}, {"lat": 53.1922528970764, "long": -6.10501339216555, "id": 4136, "name": "Putland Road"}, null, null, null, null, null, {"lat": 53.189045835275, "long": -6.12615109959763, "id": 4175, "name": "St Fergal's Church"}, {"lat": 53.1879238915683, "long": -6.12739721376408, "id": 5091, "name": "Ballywaltrim Heights"}, {"lat": 53.1858287286821, "long": -6.12905974567307, "id": 5092, "name": "Springfield Cemetery"}, null], "45A_69": [{"lat": 53.1695051592648, "long": -6.13648641234374, "id": 4533, "name": "Kilmacanogue"}, {"lat": 53.1743757146269, "long": -6.13928227932353, "id": 4844, "name": "Glencormack Road"}, {"lat": 53.1860998442124, "long": -6.12915269137745, "id": 4177, "name": "Springfield Cemetery"}, {"lat": 53.1880862794519, "long": -6.12743503167698, "id": 4178, "name": "Ballywaltrim Heights"}, null, null, null, null, null, null, {"lat": 53.1935632830355, "long": -6.10658697988633, "id": 4149, "name": "Putland Road"}, {"lat": 53.197430826872, "long": -6.10900600524937, "id": 3045, "name": "Church Road"}, {"lat": 53.200116633706, "long": -6.1105942403025, "id": 4150, "name": "Vevay Road"}, {"lat": 53.2018686482646, "long": -6.11054710423244, "id": 4151, "name": "Bray Main Street"}, {"lat": 53.2031235167519, "long": -6.10975835625962, "id": 2997, "name": "Florence Road"}, {"lat": 53.2049673829616, "long": -6.10361400629363, "id": 4156, "name": "Quinsborough Road"}, null, {"lat": 53.203483770056, "long": -6.10697299154263, "id": 4170, "name": "Methodist Church"}, {"lat": 53.2048906454772, "long": -6.1095308647775, "id": 4153, "name": "Cornerstone Church"}, {"lat": 53.2066340780954, "long": -6.11234359174607, "id": 4154, "name": "St Cronan's Road"}, {"lat": 53.2083438702134, "long": -6.11473880507392, "id": 4416, "name": "Roseville Court"}, {"lat": 53.2111253457478, "long": -6.11783585565894, "id": 4201, "name": "Old Connaught Avenue"}, {"lat": 53.2160003459128, "long": -6.11974850993044, "id": 4202, "name": "Woodbrook College"}, {"lat": 53.2197605963327, "long": -6.12051229350618, "id": 4203, "name": "St James's Church"}, {"lat": 53.2217038088661, "long": -6.12176011528158, "id": 5090, "name": "Shanganagh Cemetery"}, {"lat": 53.2233240936238, "long": -6.12362125997845, "id": 4204, "name": "Shanganagh Castle"}, {"lat": 53.2245394732772, "long": -6.12488614796323, "id": 4205, "name": "Crinken Lane"}, {"lat": 53.2275029229311, "long": -6.12471170908811, "id": 4206, "name": "Claremount"}, {"lat": 53.2297600975681, "long": -6.12420860762246, "id": 3140, "name": "Stonebridge Close"}, null, null, null, null, null, {"lat": 53.2372028920208, "long": -6.12308908529293, "id": 3552, "name": "Rathsallagh"}, {"lat": 53.2390265275583, "long": -6.12302426441118, "id": 3553, "name": "Hazelwood"}, {"lat": 53.2428981515326, "long": -6.12173100876907, "id": 3554, "name": "Shanganagh Bridge"}, {"lat": 53.2449122993181, "long": -6.12177764830752, "id": 3555, "name": "Aran Avenue"}, {"lat": 53.2481179653389, "long": -6.12328566799662, "id": 3556, "name": "The Elms"}, {"lat": 53.2493962745787, "long": -6.12340954850205, "id": 3557, "name": "Sheelin Estate"}, null, null, null, {"lat": 53.2552948672851, "long": -6.13385300991221, "id": 3225, "name": "Ballybrack SC"}, {"lat": 53.2585470715912, "long": -6.13777355798243, "id": 3226, "name": "Kilbogget Park"}, {"lat": 53.2619541741584, "long": -6.13780539377764, "id": 3227, "name": "Auburn Drive"}, {"lat": 53.2647542453765, "long": -6.13465539470502, "id": 3228, "name": "Church Road"}, {"lat": 53.2653527759427, "long": -6.13441945272899, "id": 3229, "name": "Churchview Road"}, {"lat": 53.2670680823354, "long": -6.13662362130875, "id": 7472, "name": "Killiney SC"}, {"lat": 53.2685015291178, "long": -6.13920003918439, "id": 3230, "name": "Drumkeen Manor"}, {"lat": 53.2700894891205, "long": -6.14188987343802, "id": 3231, "name": "Granitefield"}, {"lat": 53.2710762760995, "long": -6.14349639706772, "id": 3246, "name": "Johnstown Road"}, {"lat": 53.2726452445483, "long": -6.14612739248417, "id": 3247, "name": "Garden Centre"}, {"lat": 53.2735313073473, "long": -6.14761850492034, "id": 7056, "name": "Somerton"}, null, null, {"lat": 53.2779835040123, "long": -6.14030272461487, "id": 3236, "name": "Honey Park"}, {"lat": 53.2791423584346, "long": -6.13795791119735, "id": 3237, "name": "Sarsfield Street"}, {"lat": 53.283309733396, "long": -6.13372719850771, "id": 3238, "name": "Holmston Avenue"}, {"lat": 53.2843864951823, "long": -6.13303533097992, "id": 3239, "name": "Crosthwaite Park"}, {"lat": 53.2871718711238, "long": -6.13124892862004, "id": 3240, "name": "Corrig Road"}, {"lat": 53.2898294885121, "long": -6.13048790165208, "id": 3068, "name": "George's St Upper"}, {"lat": 53.2907530253444, "long": -6.13263768269568, "id": 3069, "name": "Corrig Avenue"}, {"lat": 53.2921151004321, "long": -6.13581853383444, "id": 3070, "name": "Dun Laoghaire SC"}, null], "45A_67": [null, {"lat": 53.2927911878307, "long": -6.13536904926544, "id": 2040, "name": "Dun Laoghaire SC"}, {"lat": 53.2901702910815, "long": -6.1310130392851, "id": 3047, "name": "George's St Upper"}, {"lat": 53.2888504756656, "long": -6.12996064936531, "id": 3202, "name": "Glenageary Rd Lower"}, {"lat": 53.2852204971734, "long": -6.13233901798263, "id": 3203, "name": "Traverslea Close"}, {"lat": 53.2824353372615, "long": -6.13414025296547, "id": 3204, "name": "Silchester Park"}, {"lat": 53.2793911386587, "long": -6.1371972559117, "id": 3205, "name": "Sallynoggin Road"}, {"lat": 53.2782322995408, "long": -6.13954210333348, "id": 3206, "name": "Honey Park"}, null, null, {"lat": 53.2741733398162, "long": -6.14844545130621, "id": 3243, "name": "Somerton"}, {"lat": 53.2725500612644, "long": -6.14578664145038, "id": 3244, "name": "Garden Centre"}, {"lat": 53.2706836138455, "long": -6.14252382818304, "id": 3245, "name": "Johnstown Road"}, {"lat": 53.2691150351549, "long": -6.13992305144187, "id": 3212, "name": "Granitefield"}, {"lat": 53.267061992522, "long": -6.13623408218761, "id": 3213, "name": "Killiney SC"}, {"lat": 53.2646008432281, "long": -6.13461709780435, "id": 3214, "name": "Churchview Road"}, {"lat": 53.2620312700783, "long": -6.13756219248251, "id": 3215, "name": "Auburn Drive"}, {"lat": 53.2588723069006, "long": -6.1378793432369, "id": 3216, "name": "Kilbogget Park"}, {"lat": 53.2570425975944, "long": -6.13583040408577, "id": 3217, "name": "Ballybrack SC"}, {"lat": 53.2549234444038, "long": -6.13252024013518, "id": 3218, "name": "Pinewood"}, null, {"lat": 53.2568175242791, "long": -6.12720659406664, "id": 3535, "name": "Church Road"}, {"lat": 53.2538610846826, "long": -6.12496767711338, "id": 3536, "name": "Ballybrack Village"}, {"lat": 53.2519528920837, "long": -6.12365732889128, "id": 3537, "name": "Ballybrack Cross"}, {"lat": 53.2496624405552, "long": -6.12318808857716, "id": 3538, "name": "Sheelin Estate"}, {"lat": 53.2480439849055, "long": -6.12315403365151, "id": 7556, "name": "The Elms"}, {"lat": 53.2440183365468, "long": -6.12151711523642, "id": 3539, "name": "River Close"}, {"lat": 53.2426809255031, "long": -6.12163563524093, "id": 3540, "name": "Shanganagh Bridge"}, {"lat": 53.2388260877792, "long": -6.12285324474744, "id": 3541, "name": "Hazelwood"}, null, null, null, null, {"lat": 53.2364001688533, "long": -6.12291446549235, "id": 3542, "name": "Rathsallagh"}, {"lat": 53.2337286400103, "long": -6.1233609435765, "id": 3543, "name": "St Anne's Church"}, {"lat": 53.2300638456036, "long": -6.1240904706735, "id": 3139, "name": "Stonebridge Close"}, {"lat": 53.2278303200561, "long": -6.12438284585774, "id": 4124, "name": "Claremount"}, {"lat": 53.2234316454002, "long": -6.1236015801599, "id": 4125, "name": "Shanganagh Castle"}, {"lat": 53.2221831727114, "long": -6.12194881112964, "id": 4126, "name": "Shanganagh Cemetery"}, {"lat": 53.2187787041551, "long": -6.11980650872771, "id": 4127, "name": "St James's Church"}, {"lat": 53.2159235278162, "long": -6.11943740756946, "id": 4128, "name": "Woodbrook College"}, {"lat": 53.2108556391326, "long": -6.11726373758896, "id": 4129, "name": "Old Connaught Avenue"}, {"lat": 53.2072817956956, "long": -6.11351284781385, "id": 4130, "name": "Castle Street"}, {"lat": 53.2065671431512, "long": -6.11152310823596, "id": 4131, "name": "Dwyer Park"}, {"lat": 53.2047244539015, "long": -6.10925373679255, "id": 7294, "name": "Cornerstone Church"}, {"lat": 53.2049673829616, "long": -6.10361400629363, "id": 4156, "name": "Quinsborough Road"}, null, {"lat": 53.203483770056, "long": -6.10697299154263, "id": 4170, "name": "Methodist Church"}, {"lat": 53.2023004727949, "long": -6.11000415983853, "id": 4132, "name": "Bray Main Street"}, {"lat": 53.1975733556208, "long": -6.10892488943039, "id": 4134, "name": "Church Road"}, {"lat": 53.19464638278, "long": -6.10686852204679, "id": 4135, "name": "Lauderdale"}, {"lat": 53.1922528970764, "long": -6.10501339216555, "id": 4136, "name": "Putland Road"}, null, null, null, null, null, {"lat": 53.189045835275, "long": -6.12615109959763, "id": 4175, "name": "St Fergal's Church"}, {"lat": 53.1879238915683, "long": -6.12739721376408, "id": 5091, "name": "Ballywaltrim Heights"}, {"lat": 53.1858287286821, "long": -6.12905974567307, "id": 5092, "name": "Springfield Cemetery"}, null]}