{"4_10": [{"lat": 53.4177226807655, "long": -6.27864416912571, "id": 324, "name": "Harristown"}, null, null, {"lat": 53.4131980312074, "long": -6.26534792574262, "id": 327, "name": "Silloge Golf Club"}, {"lat": 53.4025410678893, "long": -6.26492426394677, "id": 7113, "name": "Northwood Avenue"}, {"lat": 53.3991075304829, "long": -6.26368042823967, "id": 127, "name": "Nursing Home"}, {"lat": 53.3961544015487, "long": -6.26395104030175, "id": 112, "name": "Civic Centre"}, {"lat": 53.3922679629287, "long": -6.26370325464242, "id": 113, "name": "Trinity Comp School"}, {"lat": 53.3913333220569, "long": -6.26371122925232, "id": 114, "name": "Ballymun Road"}, {"lat": 53.3879640919895, "long": -6.26503610048144, "id": 115, "name": "Ballymun Road Church"}, {"lat": 53.3853464011964, "long": -6.2648869813179, "id": 37, "name": "DCU Ballymun Road"}, {"lat": 53.3822365941661, "long": -6.26550952120501, "id": 38, "name": "Hampstead Avenue"}, {"lat": 53.3804141869347, "long": -6.26565875906584, "id": 39, "name": "The Rise"}, {"lat": 53.3766607654531, "long": -6.2646689685279, "id": 40, "name": "Stella Avenue"}, {"lat": 53.3750401276344, "long": -6.26509558567463, "id": 146, "name": "Na Fianna GAA Club"}, {"lat": 53.372480226241, "long": -6.2658308621236, "id": 147, "name": "Tolka Bridge"}, {"lat": 53.369703681985, "long": -6.26897935449925, "id": 184, "name": "Botanic Road"}, {"lat": 53.3681009359885, "long": -6.27002113927779, "id": 185, "name": "St Teresa's Place"}, {"lat": 53.3653553426373, "long": -6.27158997755113, "id": 186, "name": "Lindsay Grove"}, {"lat": 53.3627342523627, "long": -6.27244736533827, "id": 187, "name": "Phibsborough Road"}, {"lat": 53.3601206877577, "long": -6.27258314915006, "id": 188, "name": "North Circular Road"}, {"lat": 53.3571674394906, "long": -6.27346881555335, "id": 189, "name": "Fire Station"}, {"lat": 53.3551257304168, "long": -6.2733710740057, "id": 190, "name": "Broadstone"}, {"lat": 53.3550179485778, "long": -6.26903378050287, "id": 191, "name": "Western Way"}, {"lat": 53.3563040208513, "long": -6.26599198569768, "id": 819, "name": "Blessington Street"}, null, {"lat": 53.352115616113, "long": -6.26105453403103, "id": 4725, "name": "O'Connell St Upper"}, {"lat": 53.3472474159548, "long": -6.25881940153953, "id": 273, "name": "O'Connell Bridge"}, {"lat": 53.342481689184, "long": -6.25560437266425, "id": 405, "name": "Nassau Street"}, {"lat": 53.3409707826263, "long": -6.25001923957637, "id": 408, "name": "Merrion Sq North"}, {"lat": 53.3401367313194, "long": -6.24769559556971, "id": 409, "name": "Holles Street"}, {"lat": 53.338813450866, "long": -6.24389039032323, "id": 410, "name": "Mount Street Lower"}, {"lat": 53.3381171192237, "long": -6.24177155350135, "id": 411, "name": "Mount Street Bridge"}, {"lat": 53.3352555102392, "long": -6.23727931905615, "id": 412, "name": "Haddington Road"}, {"lat": 53.3340941933076, "long": -6.23654639405147, "id": 413, "name": "Lansdowne Park"}, {"lat": 53.3315738058974, "long": -6.23447321695269, "id": 414, "name": "Lansdowne Road"}, {"lat": 53.3303378154095, "long": -6.23294774966432, "id": 415, "name": "American Embassy"}, {"lat": 53.3286399201201, "long": -6.22936956914697, "id": 416, "name": "RDS Ballsbridge"}, {"lat": 53.3276995856533, "long": -6.22597042048849, "id": 417, "name": "Merrion Road"}, {"lat": 53.3257198105141, "long": -6.22339529752613, "id": 418, "name": "British Embassy"}, {"lat": 53.3239951058445, "long": -6.22044950312346, "id": 419, "name": "Shrewsbury Park"}, {"lat": 53.3219108012913, "long": -6.21750392172743, "id": 420, "name": "Merlyn Road"}, {"lat": 53.3200051794243, "long": -6.21449112042236, "id": 421, "name": "Merrion View Avenue"}, {"lat": 53.3180641918658, "long": -6.21032428070776, "id": 422, "name": "St Vincent's Hosp"}, {"lat": 53.317148504137, "long": -6.20740565828112, "id": 423, "name": "Herbert Avenue"}, {"lat": 53.3153943802017, "long": -6.20372686621338, "id": 424, "name": "Merrion Gates"}, {"lat": 53.3125022140919, "long": -6.20147701716267, "id": 425, "name": "Merrion Road"}, {"lat": 53.3109673503565, "long": -6.19983067023663, "id": 426, "name": "Rock Road"}, {"lat": 53.3082703260446, "long": -6.19503694546109, "id": 427, "name": "Booterstown Station"}, {"lat": 53.3069107149282, "long": -6.19072747333759, "id": 428, "name": "Blackrock College"}, {"lat": 53.3047081024088, "long": -6.18714425675236, "id": 429, "name": "Blackrock Clinic"}, {"lat": 53.3010989673749, "long": -6.18033517004798, "id": 6334, "name": "Frascati SC"}, {"lat": 53.2991460631426, "long": -6.17488187678171, "id": 7660, "name": "Frascati Road"}, {"lat": 53.2958050119386, "long": -6.16977349078231, "id": 3114, "name": "Temple Hill"}, {"lat": 53.2939921871328, "long": -6.16761573326935, "id": 3115, "name": "Stradbrook Road"}, {"lat": 53.2899226918926, "long": -6.16717490366354, "id": 3116, "name": "Rowan Park"}, {"lat": 53.2864920895693, "long": -6.16619682053361, "id": 6085, "name": "Grange Grove"}, {"lat": 53.2866440580682, "long": -6.15972563276102, "id": 2026, "name": "Monkstown Avenue"}, {"lat": 53.2885567498215, "long": -6.15379344163174, "id": 7226, "name": "Richmond Grove"}], "4_11": [{"lat": 53.4177226807655, "long": -6.27864416912571, "id": 324, "name": "Harristown"}, {"lat": 53.4131980312074, "long": -6.26534792574262, "id": 327, "name": "Silloge Golf Club"}, {"lat": 53.4025410678893, "long": -6.26492426394677, "id": 7113, "name": "Northwood Avenue"}, {"lat": 53.3991075304829, "long": -6.26368042823967, "id": 127, "name": "Nursing Home"}, {"lat": 53.3961544015487, "long": -6.26395104030175, "id": 112, "name": "Civic Centre"}, {"lat": 53.3922679629287, "long": -6.26370325464242, "id": 113, "name": "Trinity Comp School"}, {"lat": 53.3913333220569, "long": -6.26371122925232, "id": 114, "name": "Ballymun Road"}, {"lat": 53.3879640919895, "long": -6.26503610048144, "id": 115, "name": "Ballymun Road Church"}, {"lat": 53.3853464011964, "long": -6.2648869813179, "id": 37, "name": "DCU Ballymun Road"}, {"lat": 53.3822365941661, "long": -6.26550952120501, "id": 38, "name": "Hampstead Avenue"}, {"lat": 53.3804141869347, "long": -6.26565875906584, "id": 39, "name": "The Rise"}, {"lat": 53.3766607654531, "long": -6.2646689685279, "id": 40, "name": "Stella Avenue"}, {"lat": 53.3750401276344, "long": -6.26509558567463, "id": 146, "name": "Na Fianna GAA Club"}, {"lat": 53.372480226241, "long": -6.2658308621236, "id": 147, "name": "Tolka Bridge"}, {"lat": 53.369703681985, "long": -6.26897935449925, "id": 184, "name": "Botanic Road"}, {"lat": 53.3681009359885, "long": -6.27002113927779, "id": 185, "name": "St Teresa's Place"}, {"lat": 53.3653553426373, "long": -6.27158997755113, "id": 186, "name": "Lindsay Grove"}, {"lat": 53.3627342523627, "long": -6.27244736533827, "id": 187, "name": "Phibsborough Road"}, {"lat": 53.3601206877577, "long": -6.27258314915006, "id": 188, "name": "North Circular Road"}, {"lat": 53.3571674394906, "long": -6.27346881555335, "id": 189, "name": "Fire Station"}, {"lat": 53.3551257304168, "long": -6.2733710740057, "id": 190, "name": "Broadstone"}, {"lat": 53.3550179485778, "long": -6.26903378050287, "id": 191, "name": "Western Way"}, {"lat": 53.3563040208513, "long": -6.26599198569768, "id": 819, "name": "Blessington Street"}, null, {"lat": 53.352115616113, "long": -6.26105453403103, "id": 4725, "name": "O'Connell St Upper"}], "4_12": [{"lat": 53.2885166422345, "long": -6.15352517237193, "id": 7330, "name": "Bluepool Pitches"}, {"lat": 53.2864489905228, "long": -6.15989900807043, "id": 2051, "name": "Lanesville"}, {"lat": 53.286244480501, "long": -6.16529247984307, "id": 6086, "name": "Grange Grove"}, {"lat": 53.2870045612498, "long": -6.16795979645646, "id": 3161, "name": "Deansgrange Park"}, {"lat": 53.2897488037638, "long": -6.1675573564683, "id": 3162, "name": "Rowan Park"}, {"lat": 53.2925068598858, "long": -6.16688424573156, "id": 3163, "name": "Stradbrook Road"}, {"lat": 53.2956000271775, "long": -6.16988727264522, "id": 3164, "name": "Temple Hill"}, {"lat": 53.3013812515137, "long": -6.18116341196197, "id": 3084, "name": "Frascati SC"}, {"lat": 53.3028457292126, "long": -6.18407213264847, "id": 469, "name": "Rock Road"}, {"lat": 53.3056258500263, "long": -6.18898110376377, "id": 470, "name": "Blackrock Clinic"}, {"lat": 53.3068708073446, "long": -6.19105929913705, "id": 471, "name": "Blackrock College"}, {"lat": 53.3078820347442, "long": -6.19491826731321, "id": 472, "name": "Booterstown Station"}, {"lat": 53.3092405753985, "long": -6.19738213927117, "id": 473, "name": "Grotto Avenue"}, {"lat": 53.3108182690603, "long": -6.20007706605352, "id": 4705, "name": "St Helen's Road"}, {"lat": 53.312706162538, "long": -6.20188867460386, "id": 475, "name": "Bellevue Avenue"}, {"lat": 53.3157515263735, "long": -6.20476252273258, "id": 476, "name": "Merrion Gates"}, {"lat": 53.3168630546851, "long": -6.20695232009327, "id": 477, "name": "Herbert Avenue"}, {"lat": 53.3181142989183, "long": -6.21126782530883, "id": 478, "name": "St Vincent's Hosp"}, {"lat": 53.3191439676238, "long": -6.21340128669965, "id": 479, "name": "Merrion Centre"}, {"lat": 53.32084997999, "long": -6.21628720536765, "id": 480, "name": "Netherlands Embassy"}, {"lat": 53.3223446397574, "long": -6.21826644297952, "id": 481, "name": "Wanderers FC"}, {"lat": 53.3247277780876, "long": -6.22196529496766, "id": 482, "name": "Shrewsbury Road"}, {"lat": 53.3259441074967, "long": -6.22397148052323, "id": 483, "name": "British Embassy"}, {"lat": 53.3282515101299, "long": -6.22863497077614, "id": 485, "name": "RDS Ballsbridge"}, {"lat": 53.3308552893834, "long": -6.23390230837204, "id": 487, "name": "American Embassy"}, {"lat": 53.333098554632, "long": -6.23607694701102, "id": 488, "name": "Lansdowne Park"}, {"lat": 53.3349420031478, "long": -6.23735231265615, "id": 489, "name": "St Mary's Rd South"}, {"lat": 53.3365738419154, "long": -6.23890680600162, "id": 490, "name": "Haddington Road"}, {"lat": 53.3378140535117, "long": -6.24133351088669, "id": 491, "name": "Mount Street Bridge"}, {"lat": 53.3385846851446, "long": -6.24361446215904, "id": 492, "name": "Mount Street Lower"}, {"lat": 53.3398534163799, "long": -6.24737682273893, "id": 493, "name": "Holles Street"}, {"lat": 53.341435583359, "long": -6.25168225233912, "id": 494, "name": "Clare Street"}, {"lat": 53.3435913198155, "long": -6.24974670516899, "id": 495, "name": "Pearse Station"}, {"lat": 53.344846483913, "long": -6.25320984701663, "id": 400, "name": "Shaw Street"}, {"lat": 53.3513435349612, "long": -6.26111600843156, "id": 281, "name": "O'Connell St Upper"}, {"lat": 53.352749335707, "long": -6.26445380396429, "id": 6, "name": "Parnell Square West"}, {"lat": 53.3550406495542, "long": -6.2699793110377, "id": 194, "name": "Western Way"}, {"lat": 53.355011777879, "long": -6.27357097973092, "id": 195, "name": "Broadstone"}, {"lat": 53.356883899293, "long": -6.27375070406949, "id": 196, "name": "Fire Station"}, {"lat": 53.3589526316143, "long": -6.27323137351168, "id": 197, "name": "Monck Place"}, {"lat": 53.361625382881, "long": -6.27283781041656, "id": 198, "name": "Phibsborough SC"}, {"lat": 53.3636218115005, "long": -6.27229124622515, "id": 199, "name": "Munster Street"}, {"lat": 53.3674226926335, "long": -6.27159644393797, "id": 200, "name": "Prospect Way"}, {"lat": 53.3682910986623, "long": -6.27011862691076, "id": 201, "name": "Botanic Road"}, {"lat": 53.3706701663492, "long": -6.2680685070582, "id": 148, "name": "Mobhi Road"}, {"lat": 53.3731385872581, "long": -6.26598446613774, "id": 149, "name": "Tolka Bridge"}, {"lat": 53.3756588461887, "long": -6.26499528302818, "id": 150, "name": "Na Fianna GAA Club"}, {"lat": 53.3794389600131, "long": -6.26658526125999, "id": 27, "name": "Ballymun Road"}, {"lat": 53.3815786376305, "long": -6.26600227077734, "id": 28, "name": "Hampstead Avenue"}, {"lat": 53.3834882529482, "long": -6.26566910125412, "id": 29, "name": "Albert College Park"}, {"lat": 53.3849664763564, "long": -6.26533840628634, "id": 4680, "name": "DCU"}, {"lat": 53.3863855316762, "long": -6.26526567275517, "id": 90, "name": "Albert College Court"}, {"lat": 53.3884278896508, "long": -6.26540814207678, "id": 91, "name": "Ballymun Road NS"}, {"lat": 53.3898373340536, "long": -6.264674240361, "id": 92, "name": "Ballymun Library"}, {"lat": 53.3923014677522, "long": -6.26415297561009, "id": 93, "name": "Gateway Avenue"}, {"lat": 53.396034762414, "long": -6.26437695995443, "id": 94, "name": "Civic Centre"}, {"lat": 53.3990954666878, "long": -6.2640869605604, "id": 126, "name": "Nursing Home"}, {"lat": 53.4022507542177, "long": -6.26535718879144, "id": 6182, "name": "Santry Cross"}, {"lat": 53.4042549924669, "long": -6.26535084532181, "id": 322, "name": "Gulliver's Retail Pk"}, {"lat": 53.4129298606578, "long": -6.26544910096627, "id": 323, "name": "Silloge Golf Club"}, {"lat": 53.4173526533912, "long": -6.27853875647111, "id": 332, "name": "Harristown"}], "4_13": [{"lat": 53.2885166422345, "long": -6.15352517237193, "id": 7330, "name": "Bluepool Pitches"}, {"lat": 53.2864489905228, "long": -6.15989900807043, "id": 2051, "name": "Lanesville"}, {"lat": 53.286244480501, "long": -6.16529247984307, "id": 6086, "name": "Grange Grove"}, {"lat": 53.2870045612498, "long": -6.16795979645646, "id": 3161, "name": "Deansgrange Park"}, {"lat": 53.2897488037638, "long": -6.1675573564683, "id": 3162, "name": "Rowan Park"}, {"lat": 53.2925068598858, "long": -6.16688424573156, "id": 3163, "name": "Stradbrook Road"}, {"lat": 53.2956000271775, "long": -6.16988727264522, "id": 3164, "name": "Temple Hill"}, {"lat": 53.3013812515137, "long": -6.18116341196197, "id": 3084, "name": "Frascati SC"}, {"lat": 53.3028457292126, "long": -6.18407213264847, "id": 469, "name": "Rock Road"}, {"lat": 53.3056258500263, "long": -6.18898110376377, "id": 470, "name": "Blackrock Clinic"}, {"lat": 53.3068708073446, "long": -6.19105929913705, "id": 471, "name": "Blackrock College"}, {"lat": 53.3078820347442, "long": -6.19491826731321, "id": 472, "name": "Booterstown Station"}, {"lat": 53.3092405753985, "long": -6.19738213927117, "id": 473, "name": "Grotto Avenue"}, {"lat": 53.3108182690603, "long": -6.20007706605352, "id": 4705, "name": "St Helen's Road"}, {"lat": 53.312706162538, "long": -6.20188867460386, "id": 475, "name": "Bellevue Avenue"}, {"lat": 53.3157515263735, "long": -6.20476252273258, "id": 476, "name": "Merrion Gates"}, {"lat": 53.3168630546851, "long": -6.20695232009327, "id": 477, "name": "Herbert Avenue"}, {"lat": 53.3181142989183, "long": -6.21126782530883, "id": 478, "name": "St Vincent's Hosp"}, {"lat": 53.3191439676238, "long": -6.21340128669965, "id": 479, "name": "Merrion Centre"}, {"lat": 53.32084997999, "long": -6.21628720536765, "id": 480, "name": "Netherlands Embassy"}, {"lat": 53.3223446397574, "long": -6.21826644297952, "id": 481, "name": "Wanderers FC"}, {"lat": 53.3247277780876, "long": -6.22196529496766, "id": 482, "name": "Shrewsbury Road"}, {"lat": 53.3259441074967, "long": -6.22397148052323, "id": 483, "name": "British Embassy"}, {"lat": 53.3282515101299, "long": -6.22863497077614, "id": 485, "name": "RDS Ballsbridge"}, {"lat": 53.3308552893834, "long": -6.23390230837204, "id": 487, "name": "American Embassy"}, {"lat": 53.333098554632, "long": -6.23607694701102, "id": 488, "name": "Lansdowne Park"}, {"lat": 53.3349420031478, "long": -6.23735231265615, "id": 489, "name": "St Mary's Rd South"}, {"lat": 53.3365738419154, "long": -6.23890680600162, "id": 490, "name": "Haddington Road"}, {"lat": 53.3378140535117, "long": -6.24133351088669, "id": 491, "name": "Mount Street Bridge"}, {"lat": 53.3385846851446, "long": -6.24361446215904, "id": 492, "name": "Mount Street Lower"}, {"lat": 53.3398534163799, "long": -6.24737682273893, "id": 493, "name": "Holles Street"}, {"lat": 53.341435583359, "long": -6.25168225233912, "id": 494, "name": "Clare Street"}, {"lat": 53.3435913198155, "long": -6.24974670516899, "id": 495, "name": "Pearse Station"}, {"lat": 53.344846483913, "long": -6.25320984701663, "id": 400, "name": "Shaw Street"}, {"lat": 53.3513435349612, "long": -6.26111600843156, "id": 281, "name": "O'Connell St Upper"}], "4_14": [{"lat": 53.2885166422345, "long": -6.15352517237193, "id": 7330, "name": "Bluepool Pitches"}, {"lat": 53.2864489905228, "long": -6.15989900807043, "id": 2051, "name": "Lanesville"}, {"lat": 53.286244480501, "long": -6.16529247984307, "id": 6086, "name": "Grange Grove"}, {"lat": 53.2870045612498, "long": -6.16795979645646, "id": 3161, "name": "Deansgrange Park"}, {"lat": 53.2897488037638, "long": -6.1675573564683, "id": 3162, "name": "Rowan Park"}, {"lat": 53.2925068598858, "long": -6.16688424573156, "id": 3163, "name": "Stradbrook Road"}, {"lat": 53.2956000271775, "long": -6.16988727264522, "id": 3164, "name": "Temple Hill"}, {"lat": 53.3013812515137, "long": -6.18116341196197, "id": 3084, "name": "Frascati SC"}, {"lat": 53.3028457292126, "long": -6.18407213264847, "id": 469, "name": "Rock Road"}, {"lat": 53.3056258500263, "long": -6.18898110376377, "id": 470, "name": "Blackrock Clinic"}, {"lat": 53.3068708073446, "long": -6.19105929913705, "id": 471, "name": "Blackrock College"}, {"lat": 53.3078820347442, "long": -6.19491826731321, "id": 472, "name": "Booterstown Station"}, {"lat": 53.3092405753985, "long": -6.19738213927117, "id": 473, "name": "Grotto Avenue"}, {"lat": 53.3108182690603, "long": -6.20007706605352, "id": 4705, "name": "St Helen's Road"}, {"lat": 53.312706162538, "long": -6.20188867460386, "id": 475, "name": "Bellevue Avenue"}, {"lat": 53.3157515263735, "long": -6.20476252273258, "id": 476, "name": "Merrion Gates"}, {"lat": 53.3168630546851, "long": -6.20695232009327, "id": 477, "name": "Herbert Avenue"}, {"lat": 53.3181142989183, "long": -6.21126782530883, "id": 478, "name": "St Vincent's Hosp"}, {"lat": 53.3191439676238, "long": -6.21340128669965, "id": 479, "name": "Merrion Centre"}, {"lat": 53.32084997999, "long": -6.21628720536765, "id": 480, "name": "Netherlands Embassy"}, {"lat": 53.3223446397574, "long": -6.21826644297952, "id": 481, "name": "Wanderers FC"}, {"lat": 53.3247277780876, "long": -6.22196529496766, "id": 482, "name": "Shrewsbury Road"}, {"lat": 53.3259441074967, "long": -6.22397148052323, "id": 483, "name": "British Embassy"}, {"lat": 53.3282515101299, "long": -6.22863497077614, "id": 485, "name": "RDS Ballsbridge"}, {"lat": 53.3308552893834, "long": -6.23390230837204, "id": 487, "name": "American Embassy"}, {"lat": 53.333098554632, "long": -6.23607694701102, "id": 488, "name": "Lansdowne Park"}, {"lat": 53.3349420031478, "long": -6.23735231265615, "id": 489, "name": "St Mary's Rd South"}, {"lat": 53.3365738419154, "long": -6.23890680600162, "id": 490, "name": "Haddington Road"}, {"lat": 53.3378140535117, "long": -6.24133351088669, "id": 491, "name": "Mount Street Bridge"}, {"lat": 53.3385846851446, "long": -6.24361446215904, "id": 492, "name": "Mount Street Lower"}, {"lat": 53.3398534163799, "long": -6.24737682273893, "id": 493, "name": "Holles Street"}, {"lat": 53.341435583359, "long": -6.25168225233912, "id": 494, "name": "Clare Street"}, {"lat": 53.3435913198155, "long": -6.24974670516899, "id": 495, "name": "Pearse Station"}, {"lat": 53.344846483913, "long": -6.25320984701663, "id": 400, "name": "Shaw Street"}, {"lat": 53.3513435349612, "long": -6.26111600843156, "id": 281, "name": "O'Connell St Upper"}, {"lat": 53.352749335707, "long": -6.26445380396429, "id": 6, "name": "Parnell Square West"}, {"lat": 53.3550406495542, "long": -6.2699793110377, "id": 194, "name": "Western Way"}, {"lat": 53.355011777879, "long": -6.27357097973092, "id": 195, "name": "Broadstone"}, {"lat": 53.356883899293, "long": -6.27375070406949, "id": 196, "name": "Fire Station"}, {"lat": 53.3589526316143, "long": -6.27323137351168, "id": 197, "name": "Monck Place"}, {"lat": 53.361625382881, "long": -6.27283781041656, "id": 198, "name": "Phibsborough SC"}, {"lat": 53.3636218115005, "long": -6.27229124622515, "id": 199, "name": "Munster Street"}, {"lat": 53.3674226926335, "long": -6.27159644393797, "id": 200, "name": "Prospect Way"}, {"lat": 53.3682910986623, "long": -6.27011862691076, "id": 201, "name": "Botanic Road"}, {"lat": 53.3706701663492, "long": -6.2680685070582, "id": 148, "name": "Mobhi Road"}, {"lat": 53.3731385872581, "long": -6.26598446613774, "id": 149, "name": "Tolka Bridge"}, {"lat": 53.3756588461887, "long": -6.26499528302818, "id": 150, "name": "Na Fianna GAA Club"}, {"lat": 53.3794389600131, "long": -6.26658526125999, "id": 27, "name": "Ballymun Road"}, {"lat": 53.3815786376305, "long": -6.26600227077734, "id": 28, "name": "Hampstead Avenue"}, {"lat": 53.3834882529482, "long": -6.26566910125412, "id": 29, "name": "Albert College Park"}, {"lat": 53.3849664763564, "long": -6.26533840628634, "id": 4680, "name": "DCU"}, {"lat": 53.3863855316762, "long": -6.26526567275517, "id": 90, "name": "Albert College Court"}, {"lat": 53.3884278896508, "long": -6.26540814207678, "id": 91, "name": "Ballymun Road NS"}, {"lat": 53.3898373340536, "long": -6.264674240361, "id": 92, "name": "Ballymun Library"}, {"lat": 53.3923014677522, "long": -6.26415297561009, "id": 93, "name": "Gateway Avenue"}, {"lat": 53.396034762414, "long": -6.26437695995443, "id": 94, "name": "Civic Centre"}, {"lat": 53.3990954666878, "long": -6.2640869605604, "id": 126, "name": "Nursing Home"}, {"lat": 53.4022507542177, "long": -6.26535718879144, "id": 6182, "name": "Santry Cross"}, {"lat": 53.4042549924669, "long": -6.26535084532181, "id": 322, "name": "Gulliver's Retail Pk"}, {"lat": 53.4129298606578, "long": -6.26544910096627, "id": 323, "name": "Silloge Golf Club"}, {"lat": 53.4173526533912, "long": -6.27853875647111, "id": 332, "name": "Harristown"}]}