{"56A_30": [{"lat": 53.2857103566658, "long": -6.37241720059962, "id": 4344, "name": "The Square"}, {"lat": 53.2850288716238, "long": -6.37847238352646, "id": 2349, "name": "Alderwood"}, {"lat": 53.2832055705941, "long": -6.3845254486257, "id": 2351, "name": "Blessington Road"}, {"lat": 53.2821328026315, "long": -6.38960496497795, "id": 2621, "name": "Kilclare"}, {"lat": 53.283809057452, "long": -6.39260147090931, "id": 2622, "name": "Tallaght Leisure"}, {"lat": 53.2865538834993, "long": -6.38952868997725, "id": 2750, "name": "Springfield PO"}, {"lat": 53.2889146479229, "long": -6.38796993833087, "id": 2751, "name": "St Mark's GAA Club"}, {"lat": 53.2909794230013, "long": -6.38778719206144, "id": 2752, "name": "St Mark's School"}, {"lat": 53.2938920208401, "long": -6.38848757101424, "id": 2753, "name": "The Belgard"}, {"lat": 53.2981031514648, "long": -6.38684374847303, "id": 2754, "name": "Alpine Rise"}, {"lat": 53.3000407673409, "long": -6.3832449054733, "id": 2755, "name": "Belgard Heights"}, {"lat": 53.30233293481, "long": -6.37862702230113, "id": 2756, "name": "Old Belgard Road"}, {"lat": 53.3043648332016, "long": -6.3766894164485, "id": 2764, "name": "Kingswood Avenue"}, {"lat": 53.3070277393361, "long": -6.37291193846667, "id": 7178, "name": "Tynan Hall Park"}, {"lat": 53.3070654971901, "long": -6.36843873058868, "id": 2765, "name": "St Killian's Church"}, {"lat": 53.3045560640769, "long": -6.36568344928164, "id": 2766, "name": "Sylvan Close"}, {"lat": 53.3106527209606, "long": -6.35412009971864, "id": 2767, "name": "Westgate Park"}, {"lat": 53.3123301768435, "long": -6.35779250995435, "id": 2772, "name": "Ballymount Retail C"}, {"lat": 53.3137863953715, "long": -6.35715128060314, "id": 2768, "name": "Ballymount Road"}, {"lat": 53.3149171596079, "long": -6.35311552812693, "id": 2769, "name": "Ballymount Avenue"}, {"lat": 53.3165416776731, "long": -6.34580347849789, "id": 2770, "name": "Ballymount Drive"}, {"lat": 53.3165322111938, "long": -6.34253181167256, "id": 2771, "name": "Ballymount Ind Est"}, {"lat": 53.317221868983, "long": -6.3371916957735, "id": 2773, "name": "Ballymount Square"}, {"lat": 53.3182607318133, "long": -6.33498987366934, "id": 2774, "name": "Walkinstown Avenue"}, {"lat": 53.3191699520245, "long": -6.33638045222642, "id": 2777, "name": "Walkinstown Park Est"}, {"lat": 53.3227770258132, "long": -6.34110386134688, "id": 2775, "name": "Ep Mooney Park"}, {"lat": 53.3238376853479, "long": -6.33917121398622, "id": 2181, "name": "Long Mile Road"}, {"lat": 53.3239619234595, "long": -6.33518822198745, "id": 2182, "name": "Walkinstown Parade"}, {"lat": 53.3240244462339, "long": -6.3319432002736, "id": 2778, "name": "Drimnagh Castle"}, {"lat": 53.3242587027691, "long": -6.32749048930551, "id": 2185, "name": "Slievebloom Road"}, {"lat": 53.3250607821042, "long": -6.3186918941508, "id": 7043, "name": "St Mary's Road"}, {"lat": 53.3256625125872, "long": -6.31674662153121, "id": 1424, "name": "Crumlin Hospital"}, {"lat": 53.3269332843438, "long": -6.31253797965369, "id": 2186, "name": "Crumlin Road"}, {"lat": 53.3280452768604, "long": -6.30728442530439, "id": 2187, "name": "Iveagh Grounds"}, {"lat": 53.3290169228319, "long": -6.30292198124806, "id": 2188, "name": "Crumlin College"}, {"lat": 53.3296953958841, "long": -6.30007240820084, "id": 2189, "name": "Crumlin SC"}, {"lat": 53.3308849576952, "long": -6.29651171993402, "id": 1436, "name": "Herberton Road"}, {"lat": 53.3316839465215, "long": -6.29455799199736, "id": 3952, "name": "Rutland Avenue"}, {"lat": 53.3327705719712, "long": -6.2926077161978, "id": 2190, "name": "Dolphin's Barn"}, {"lat": 53.3358683779528, "long": -6.28925547896635, "id": 4434, "name": "Coombe Hospital"}, {"lat": 53.3378334357811, "long": -6.28464170707985, "id": 2379, "name": "Marion Villas"}, {"lat": 53.3385060739033, "long": -6.28016962356299, "id": 2380, "name": "Ardee Street"}, {"lat": 53.3388578109852, "long": -6.27838342591739, "id": 2382, "name": "St Luke's Avenue"}, {"lat": 53.3389824385794, "long": -6.27581043675113, "id": 5099, "name": "Newmarket Street"}, {"lat": 53.3394580682633, "long": -6.2726525825533, "id": 2383, "name": "Patrick's Cathedral"}, {"lat": 53.3440412686027, "long": -6.26826194159566, "id": 2003, "name": "Exchange St Upper"}, {"lat": 53.3443047133873, "long": -6.26288938939078, "id": 1358, "name": "Dame Street"}, {"lat": 53.3460128066393, "long": -6.25613609916839, "id": 340, "name": "Townsend Street"}, {"lat": 53.3456319415842, "long": -6.24976824959419, "id": 350, "name": "Prince's St South"}, {"lat": 53.3434182647933, "long": -6.24530817378356, "id": 351, "name": "Erne Street"}, {"lat": 53.3429891458056, "long": -6.24241213998985, "id": 352, "name": "Pearse Square"}, {"lat": 53.3426158463834, "long": -6.23964903171018, "id": 353, "name": "Grand Canal Quay"}, {"lat": 53.34223582802, "long": -6.23643568982665, "id": 354, "name": "Ringsend Road"}], "56A_31": [{"lat": 53.3419400535678, "long": -6.23527645441628, "id": 395, "name": "Ringsend Road"}, {"lat": 53.3424615903765, "long": -6.23955025594788, "id": 396, "name": "Grand Canal Quay"}, {"lat": 53.342785555443, "long": -6.24201500730756, "id": 397, "name": "Pearse Square"}, {"lat": 53.3432949350384, "long": -6.24547844686784, "id": 398, "name": "Erne Street"}, {"lat": 53.3438668221087, "long": -6.2483086014322, "id": 399, "name": "Pearse Station"}, {"lat": 53.344846483913, "long": -6.25320984701663, "id": 400, "name": "Shaw Street"}, {"lat": 53.3442624890487, "long": -6.2606081798795, "id": 4522, "name": "College Green"}, {"lat": 53.3441183606967, "long": -6.26552532473915, "id": 1934, "name": "Dame Street"}, {"lat": 53.3424457018012, "long": -6.26979842837399, "id": 2310, "name": "Werburgh Street"}, {"lat": 53.3382852826653, "long": -6.27049246703827, "id": 2311, "name": "Kevin Street"}, {"lat": 53.3388788545774, "long": -6.27548423467158, "id": 2312, "name": "St Luke's Avenue"}, {"lat": 53.3387423330578, "long": -6.27847818154424, "id": 2313, "name": "Ardee Court"}, {"lat": 53.3383536836872, "long": -6.28082149273864, "id": 2314, "name": "Cork Street"}, {"lat": 53.3375364314403, "long": -6.28523928429942, "id": 2315, "name": "Brickfield Lane"}, {"lat": 53.3347519664071, "long": -6.28975063819714, "id": 2094, "name": "Coombe Hospital"}, {"lat": 53.3331529314539, "long": -6.29169152684095, "id": 1406, "name": "Dolphin's Barn"}, {"lat": 53.3315385027721, "long": -6.2944436769088, "id": 1407, "name": "Crumlin Road"}, {"lat": 53.3303667447669, "long": -6.29735815557584, "id": 1409, "name": "Loreto College"}, {"lat": 53.3290374667788, "long": -6.30247075150147, "id": 2095, "name": "Crumlin SC"}, {"lat": 53.3280835904832, "long": -6.3068174910165, "id": 2096, "name": "Guinness RFC"}, {"lat": 53.3274327540357, "long": -6.30972580638994, "id": 2097, "name": "Iveagh Gardens"}, {"lat": 53.3255615813935, "long": -6.31660046938247, "id": 2099, "name": "Drimnagh Road"}, {"lat": 53.3249545652181, "long": -6.31817063885903, "id": 2101, "name": "Crumlin Hospital"}, {"lat": 53.3241948460768, "long": -6.32614190218009, "id": 2102, "name": "Balfe Road"}, {"lat": 53.3238143897131, "long": -6.33042017959449, "id": 2726, "name": "Long Mile Road"}, {"lat": 53.3237589731435, "long": -6.33288429328553, "id": 2727, "name": "Drimnagh Castle"}, {"lat": 53.3236525793907, "long": -6.337497077654, "id": 2105, "name": "Walkinstown Parade"}, {"lat": 53.3213702338932, "long": -6.33947719789327, "id": 2728, "name": "Walkinstown Park"}, {"lat": 53.3191106120977, "long": -6.33599249403808, "id": 2729, "name": "Walkinstown Park Est"}, {"lat": 53.3179354289307, "long": -6.33422202603394, "id": 2730, "name": "Walkinstown Comm Cen"}, {"lat": 53.3171052967332, "long": -6.33721123730225, "id": 6083, "name": "Walkinstown Cresent"}, {"lat": 53.3164035075707, "long": -6.34297206830158, "id": 2733, "name": "Ballymount Ind Est"}, {"lat": 53.3163850096424, "long": -6.34552436143178, "id": 2734, "name": "Ballymount Drive"}, {"lat": 53.3147179998576, "long": -6.35366350809285, "id": 5169, "name": "Ballymount Avenue"}, {"lat": 53.3137826760128, "long": -6.35688127345927, "id": 2735, "name": "Crosslands Park"}, {"lat": 53.312372614767, "long": -6.35761078679186, "id": 2736, "name": "Ballymount Retail C"}, {"lat": 53.3108283702546, "long": -6.35447351735306, "id": 2725, "name": "Westgate Park"}, {"lat": 53.3049725853614, "long": -6.36590762444595, "id": 2737, "name": "Sylvan Drive"}, {"lat": 53.3063743002465, "long": -6.36718960146603, "id": 2738, "name": "Kingswood Comm Cen"}, {"lat": 53.3072401572465, "long": -6.37003771355728, "id": 2739, "name": "St Killian's School"}, {"lat": 53.3069450474972, "long": -6.37278002992024, "id": 7177, "name": "Tynan Hall Park"}, {"lat": 53.304072259785, "long": -6.37698560802459, "id": 2740, "name": "Kingswood Avenue"}, {"lat": 53.3019086628321, "long": -6.37915323669484, "id": 2741, "name": "Cookstown Road"}, {"lat": 53.3000530411035, "long": -6.38282434491805, "id": 2742, "name": "Belgard Heights"}, {"lat": 53.2984451872844, "long": -6.38621573876111, "id": 2743, "name": "Ard Mhuire School"}, {"lat": 53.2936188699085, "long": -6.38822783224723, "id": 2745, "name": "Cairnwood Avenue"}, {"lat": 53.2913434871984, "long": -6.38745847381487, "id": 2746, "name": "St Mark's School"}, {"lat": 53.2892619622388, "long": -6.38773186666187, "id": 2747, "name": "St Mark's GAA Club"}, {"lat": 53.2859544208466, "long": -6.38973121785082, "id": 2748, "name": "Maplewood Road"}, {"lat": 53.2848097660929, "long": -6.39349379003628, "id": 7062, "name": "Whitebrook"}, {"lat": 53.2832294373398, "long": -6.39094350153132, "id": 6075, "name": "Whitebrook Park"}, {"lat": 53.2821961657635, "long": -6.38897270039791, "id": 2631, "name": "Raheen Drive"}, {"lat": 53.2835900308723, "long": -6.38437596627328, "id": 2359, "name": "Maplewood Avenue"}, {"lat": 53.2846948207372, "long": -6.37968487975509, "id": 2360, "name": "Alderwood"}, {"lat": 53.2860074546224, "long": -6.37377077680564, "id": 4340, "name": "The Square"}]}