{"59_10": [null, null, {"lat": 53.2901702910815, "long": -6.1310130392851, "id": 3047, "name": "George's St Upper"}, {"lat": 53.2884360889385, "long": -6.12703875625878, "id": 3048, "name": "Sandycove Station"}, {"lat": 53.28740610423, "long": -6.1244138836199, "id": 3049, "name": "St Joseph's Church"}, {"lat": 53.2869490232388, "long": -6.12221398722346, "id": 3050, "name": "Glasthule"}, {"lat": 53.2861243256503, "long": -6.11779540064788, "id": 3051, "name": "Sandycove Road"}, {"lat": 53.2859077245715, "long": -6.114895095088, "id": 3052, "name": "Elton Park"}, {"lat": 53.2855898368877, "long": -6.11127933122854, "id": 3053, "name": "Breffni Road"}, {"lat": 53.2841020240658, "long": -6.10758033626926, "id": 3054, "name": "Ulverton Road"}, {"lat": 53.2818349023691, "long": -6.10688564831263, "id": 3055, "name": "South Winds"}, {"lat": 53.2803100842437, "long": -6.10708802948226, "id": 3056, "name": "Church Road"}, {"lat": 53.278384341361, "long": -6.10694819720101, "id": 3057, "name": "Dalkey Village"}, {"lat": 53.2772540928633, "long": -6.11446620773607, "id": 4830, "name": "Barnhill Road"}, {"lat": 53.2768275477674, "long": -6.11932867016879, "id": 7667, "name": "Saval Park Road"}, {"lat": 53.2736454077168, "long": -6.12387685471155, "id": 3091, "name": "Avondale Road"}, {"lat": 53.2720738489749, "long": -6.12682457731465, "id": 3092, "name": "Arnold Grove"}, {"lat": 53.2703459406442, "long": -6.13012375959349, "id": 3093, "name": "Arnold Park"}, null, null, null, null, null, null], "59_11": [null, null, null, null, null, null, null, null, null, null, null, null, null, {"lat": 53.2800139122802, "long": -6.10711611757965, "id": 3059, "name": "Church Road"}, {"lat": 53.2821419601023, "long": -6.10697705836505, "id": 3060, "name": "The Paddocks"}, {"lat": 53.2841599607951, "long": -6.10783275052506, "id": 3061, "name": "Our Lady's Manor"}, {"lat": 53.2855435411939, "long": -6.11176134122501, "id": 3062, "name": "Breffni Road"}, {"lat": 53.2859751405778, "long": -6.1163170447788, "id": 3063, "name": "Sandycove Road"}, {"lat": 53.2860328652453, "long": -6.11940433013809, "id": 3064, "name": "Brudett Avenue"}, {"lat": 53.2869934492902, "long": -6.12275201988678, "id": 3065, "name": "Glasthule"}, {"lat": 53.2877232595929, "long": -6.12571996545645, "id": 3066, "name": "St Joseph's Church"}, {"lat": 53.2884048690809, "long": -6.1273401212366, "id": 3067, "name": "Sandycove Station"}, {"lat": 53.2898294885121, "long": -6.13048790165208, "id": 3068, "name": "George's St Upper"}, {"lat": 53.2907530253444, "long": -6.13263768269568, "id": 3069, "name": "Corrig Avenue"}, {"lat": 53.2921151004321, "long": -6.13581853383444, "id": 3070, "name": "Dun Laoghaire SC"}, null]}