{"63_26": [{"lat": 53.2948871708172, "long": -6.13490268686872, "id": 2039, "name": "Dun Laoghaire Stn"}, {"lat": 53.2927911878307, "long": -6.13536904926544, "id": 2040, "name": "Dun Laoghaire SC"}, {"lat": 53.2935976049862, "long": -6.13923437692796, "id": 2041, "name": "St Michael's Hosp"}, {"lat": 53.2936511303445, "long": -6.14266745416558, "id": 2042, "name": "Smith's Villas"}, {"lat": 53.2924735173733, "long": -6.14265854466943, "id": 2043, "name": "Vesey Place"}, {"lat": 53.2908723467688, "long": -6.1437330675011, "id": 2044, "name": "Knapton Court"}, {"lat": 53.2890770531328, "long": -6.14504092261009, "id": 2045, "name": "Tivoli Terrace Sth"}, {"lat": 53.2858693158527, "long": -6.14568986154818, "id": 2046, "name": "Mounttown Rd Lower"}, null, null, null, null, {"lat": 53.2864489905228, "long": -6.15989900807043, "id": 2051, "name": "Lanesville"}, {"lat": 53.2848462329975, "long": -6.16029785598614, "id": 2053, "name": "Abbey Park"}, {"lat": 53.2832385379662, "long": -6.15921207580309, "id": 2054, "name": "Rory O'Connor Park"}, {"lat": 53.2814599366222, "long": -6.15811872882555, "id": 2055, "name": "Casement Villas"}, null, null, null, null, {"lat": 53.2620155969702, "long": -6.15040988277696, "id": 5127, "name": "Cabinteely Bypass"}, {"lat": 53.2655267044632, "long": -6.15773927584592, "id": 5128, "name": "Clonkeen Road"}, {"lat": 53.2654127994802, "long": -6.15909343780998, "id": 3126, "name": "Old Bray Road"}, null, null, null, null, null, null, null, null, null, null, null, null, null, null, null, null, {"lat": 53.2390505484196, "long": -6.19616830395543, "id": 3478, "name": "Golden Ball"}, {"lat": 53.2377713031924, "long": -6.19538310592198, "id": 3280, "name": "Wayside Cottages"}, {"lat": 53.2357465353774, "long": -6.19344580292079, "id": 3282, "name": "Kiltiernan Village"}, {"lat": 53.2357973490453, "long": -6.19383317906762, "id": 3283, "name": "Kiltiernan Village"}], "63_28": [{"lat": 53.2357973490453, "long": -6.19383317906762, "id": 3283, "name": "Kiltiernan Village"}, {"lat": 53.2392794199912, "long": -6.19644334783147, "id": 3284, "name": "Golden Ball"}, null, null, null, null, null, null, null, null, null, null, null, null, null, null, {"lat": 53.265816313638, "long": -6.15903112569044, "id": 3153, "name": "Old Bray Road"}, {"lat": 53.265939431743, "long": -6.15769154664816, "id": 7362, "name": "Clonkeen Road"}, {"lat": 53.2624552680705, "long": -6.15036092469467, "id": 3129, "name": "Johnstown Road"}, null, null, null, {"lat": 53.2812918182702, "long": -6.15829093095012, "id": 2023, "name": "Abbey Road"}, {"lat": 53.2834492978017, "long": -6.15947298224867, "id": 2024, "name": "Rory O'Connor Park"}, {"lat": 53.2849038275037, "long": -6.16053535986143, "id": 2025, "name": "Abbey Park"}, {"lat": 53.2866440580682, "long": -6.15972563276102, "id": 2026, "name": "Monkstown Avenue"}, null, null, null, null, {"lat": 53.2861123043947, "long": -6.14570933636029, "id": 2031, "name": "Mounttown Road Lower"}, {"lat": 53.2895238358957, "long": -6.14487156098934, "id": 2032, "name": "York Road"}, {"lat": 53.2914782410353, "long": -6.14339177356114, "id": 2033, "name": "Knapton Court"}, {"lat": 53.2927363386592, "long": -6.14279715535515, "id": 2034, "name": "Vesey Place"}, {"lat": 53.2957723493687, "long": -6.14266542172256, "id": 2035, "name": "Crofton Road"}, {"lat": 53.2957927315752, "long": -6.1382087898319, "id": 2036, "name": "Crofton  Avenue"}, {"lat": 53.2948871708172, "long": -6.13490268686872, "id": 2039, "name": "Dun Laoghaire Stn"}], "63_25": [{"lat": 53.2948871708172, "long": -6.13490268686872, "id": 2039, "name": "Dun Laoghaire Stn"}, {"lat": 53.2927911878307, "long": -6.13536904926544, "id": 2040, "name": "Dun Laoghaire SC"}, {"lat": 53.2935976049862, "long": -6.13923437692796, "id": 2041, "name": "St Michael's Hosp"}, {"lat": 53.2936511303445, "long": -6.14266745416558, "id": 2042, "name": "Smith's Villas"}, {"lat": 53.2924735173733, "long": -6.14265854466943, "id": 2043, "name": "Vesey Place"}, {"lat": 53.2908723467688, "long": -6.1437330675011, "id": 2044, "name": "Knapton Court"}, {"lat": 53.2890770531328, "long": -6.14504092261009, "id": 2045, "name": "Tivoli Terrace Sth"}, {"lat": 53.2858693158527, "long": -6.14568986154818, "id": 2046, "name": "Mounttown Rd Lower"}, null, null, null, null, {"lat": 53.2864489905228, "long": -6.15989900807043, "id": 2051, "name": "Lanesville"}, {"lat": 53.2848462329975, "long": -6.16029785598614, "id": 2053, "name": "Abbey Park"}, {"lat": 53.2832385379662, "long": -6.15921207580309, "id": 2054, "name": "Rory O'Connor Park"}, {"lat": 53.2814599366222, "long": -6.15811872882555, "id": 2055, "name": "Casement Villas"}, null, null, null, null, {"lat": 53.2620155969702, "long": -6.15040988277696, "id": 5127, "name": "Cabinteely Bypass"}, {"lat": 53.2655267044632, "long": -6.15773927584592, "id": 5128, "name": "Clonkeen Road"}, {"lat": 53.2654127994802, "long": -6.15909343780998, "id": 3126, "name": "Old Bray Road"}, null, null, null, null, null, null, null, null, null, null, null, null, null, null, null, {"lat": 53.2390505484196, "long": -6.19616830395543, "id": 3478, "name": "Golden Ball"}, {"lat": 53.2377713031924, "long": -6.19538310592198, "id": 3280, "name": "Wayside Cottages"}, {"lat": 53.2357465353774, "long": -6.19344580292079, "id": 3282, "name": "Kiltiernan Village"}, {"lat": 53.2357973490453, "long": -6.19383317906762, "id": 3283, "name": "Kiltiernan Village"}], "63_30": [{"lat": 53.2357973490453, "long": -6.19383317906762, "id": 3283, "name": "Kiltiernan Village"}, {"lat": 53.2392794199912, "long": -6.19644334783147, "id": 3284, "name": "Golden Ball"}, null, null, null, null, null, null, null, null, null, null, null, null, null, null, null, {"lat": 53.265816313638, "long": -6.15903112569044, "id": 3153, "name": "Old Bray Road"}, {"lat": 53.265939431743, "long": -6.15769154664816, "id": 7362, "name": "Clonkeen Road"}, {"lat": 53.2624552680705, "long": -6.15036092469467, "id": 3129, "name": "Johnstown Road"}, null, null, null, {"lat": 53.2812918182702, "long": -6.15829093095012, "id": 2023, "name": "Abbey Road"}, {"lat": 53.2834492978017, "long": -6.15947298224867, "id": 2024, "name": "Rory O'Connor Park"}, {"lat": 53.2849038275037, "long": -6.16053535986143, "id": 2025, "name": "Abbey Park"}, {"lat": 53.2866440580682, "long": -6.15972563276102, "id": 2026, "name": "Monkstown Avenue"}, null, null, null, null, {"lat": 53.2861123043947, "long": -6.14570933636029, "id": 2031, "name": "Mounttown Road Lower"}, {"lat": 53.2895238358957, "long": -6.14487156098934, "id": 2032, "name": "York Road"}, {"lat": 53.2914782410353, "long": -6.14339177356114, "id": 2033, "name": "Knapton Court"}, {"lat": 53.2927363386592, "long": -6.14279715535515, "id": 2034, "name": "Vesey Place"}, {"lat": 53.2957723493687, "long": -6.14266542172256, "id": 2035, "name": "Crofton Road"}, {"lat": 53.2957927315752, "long": -6.1382087898319, "id": 2036, "name": "Crofton  Avenue"}, {"lat": 53.2948871708172, "long": -6.13490268686872, "id": 2039, "name": "Dun Laoghaire Stn"}], "63_31": [{"lat": 53.2357973490453, "long": -6.19383317906762, "id": 3283, "name": "Kiltiernan Village"}, {"lat": 53.2392794199912, "long": -6.19644334783147, "id": 3284, "name": "Golden Ball"}, null, null, null, null, null, null, null, null, null, null, null, null, null, null, null, null, null, null, null, null, null, null, null, {"lat": 53.265816313638, "long": -6.15903112569044, "id": 3153, "name": "Old Bray Road"}, {"lat": 53.265939431743, "long": -6.15769154664816, "id": 7362, "name": "Clonkeen Road"}, {"lat": 53.2624552680705, "long": -6.15036092469467, "id": 3129, "name": "Johnstown Road"}, null, null, null, {"lat": 53.2812918182702, "long": -6.15829093095012, "id": 2023, "name": "Abbey Road"}, {"lat": 53.2834492978017, "long": -6.15947298224867, "id": 2024, "name": "Rory O'Connor Park"}, {"lat": 53.2849038275037, "long": -6.16053535986143, "id": 2025, "name": "Abbey Park"}, {"lat": 53.2866440580682, "long": -6.15972563276102, "id": 2026, "name": "Monkstown Avenue"}, null, null, null, null, {"lat": 53.2861123043947, "long": -6.14570933636029, "id": 2031, "name": "Mounttown Road Lower"}, {"lat": 53.2895238358957, "long": -6.14487156098934, "id": 2032, "name": "York Road"}, {"lat": 53.2914782410353, "long": -6.14339177356114, "id": 2033, "name": "Knapton Court"}, {"lat": 53.2927363386592, "long": -6.14279715535515, "id": 2034, "name": "Vesey Place"}, {"lat": 53.2957723493687, "long": -6.14266542172256, "id": 2035, "name": "Crofton Road"}, {"lat": 53.2957927315752, "long": -6.1382087898319, "id": 2036, "name": "Crofton  Avenue"}, {"lat": 53.2948871708172, "long": -6.13490268686872, "id": 2039, "name": "Dun Laoghaire Stn"}], "63_27": [{"lat": 53.2948871708172, "long": -6.13490268686872, "id": 2039, "name": "Dun Laoghaire Stn"}, {"lat": 53.2927911878307, "long": -6.13536904926544, "id": 2040, "name": "Dun Laoghaire SC"}, {"lat": 53.2935976049862, "long": -6.13923437692796, "id": 2041, "name": "St Michael's Hosp"}, {"lat": 53.2936511303445, "long": -6.14266745416558, "id": 2042, "name": "Smith's Villas"}, {"lat": 53.2924735173733, "long": -6.14265854466943, "id": 2043, "name": "Vesey Place"}, {"lat": 53.2908723467688, "long": -6.1437330675011, "id": 2044, "name": "Knapton Court"}, {"lat": 53.2890770531328, "long": -6.14504092261009, "id": 2045, "name": "Tivoli Terrace Sth"}, {"lat": 53.2858693158527, "long": -6.14568986154818, "id": 2046, "name": "Mounttown Rd Lower"}, null, null, null, null, {"lat": 53.2864489905228, "long": -6.15989900807043, "id": 2051, "name": "Lanesville"}, {"lat": 53.2848462329975, "long": -6.16029785598614, "id": 2053, "name": "Abbey Park"}, {"lat": 53.2832385379662, "long": -6.15921207580309, "id": 2054, "name": "Rory O'Connor Park"}, {"lat": 53.2814599366222, "long": -6.15811872882555, "id": 2055, "name": "Casement Villas"}, null, null, null, null, {"lat": 53.2620155969702, "long": -6.15040988277696, "id": 5127, "name": "Cabinteely Bypass"}, {"lat": 53.2655267044632, "long": -6.15773927584592, "id": 5128, "name": "Clonkeen Road"}, {"lat": 53.2654127994802, "long": -6.15909343780998, "id": 3126, "name": "Old Bray Road"}, null, null, null, null, null, null, null, null, null, null, null, null, null, null, null, null, null, null, null, null, null, null, null, null, null, {"lat": 53.2390505484196, "long": -6.19616830395543, "id": 3478, "name": "Golden Ball"}, {"lat": 53.2377713031924, "long": -6.19538310592198, "id": 3280, "name": "Wayside Cottages"}, {"lat": 53.2357465353774, "long": -6.19344580292079, "id": 3282, "name": "Kiltiernan Village"}, {"lat": 53.2357973490453, "long": -6.19383317906762, "id": 3283, "name": "Kiltiernan Village"}], "63_29": [{"lat": 53.2834492978017, "long": -6.15947298224867, "id": 2024, "name": "Rory O'Connor Park"}, {"lat": 53.2849038275037, "long": -6.16053535986143, "id": 2025, "name": "Abbey Park"}, {"lat": 53.2866440580682, "long": -6.15972563276102, "id": 2026, "name": "Monkstown Avenue"}, null, null, null, null, {"lat": 53.2861123043947, "long": -6.14570933636029, "id": 2031, "name": "Mounttown Road Lower"}, {"lat": 53.2895238358957, "long": -6.14487156098934, "id": 2032, "name": "York Road"}, {"lat": 53.2914782410353, "long": -6.14339177356114, "id": 2033, "name": "Knapton Court"}, {"lat": 53.2927363386592, "long": -6.14279715535515, "id": 2034, "name": "Vesey Place"}, {"lat": 53.2957723493687, "long": -6.14266542172256, "id": 2035, "name": "Crofton Road"}, {"lat": 53.2957927315752, "long": -6.1382087898319, "id": 2036, "name": "Crofton  Avenue"}, {"lat": 53.2948871708172, "long": -6.13490268686872, "id": 2039, "name": "Dun Laoghaire Stn"}]}