{"66X_94": [{"lat": 53.3464177131193, "long": -6.25924373595412, "id": 318, "name": "Westmoreland Street"}, {"lat": 53.3454764728287, "long": -6.26620615548425, "id": 312, "name": "Wellington Quay"}, {"lat": 53.3450180037747, "long": -6.27426019093106, "id": 1444, "name": "Merchant's Quay"}, {"lat": 53.3456784102547, "long": -6.27828883961715, "id": 1445, "name": "Usher's Quay"}, {"lat": 53.346629644517, "long": -6.28817874961114, "id": 1447, "name": "Victoria Quay"}, {"lat": 53.3458840623229, "long": -6.29385604999962, "id": 2637, "name": "Heuston Station"}, {"lat": 53.3432718551678, "long": -6.31051108491757, "id": 2721, "name": "Chapelizod Bypass"}, {"lat": 53.3429541422341, "long": -6.3153746792035, "id": 7012, "name": "Memorial Gardens"}, {"lat": 53.3532737532198, "long": -6.36457116457726, "id": 2201, "name": "Palmerstown Drive"}, {"lat": 53.3547555333603, "long": -6.37171030536814, "id": 4401, "name": "Kennelsfort"}, {"lat": 53.3557135565417, "long": -6.39198489791745, "id": 2213, "name": "Liffey Valley SC"}, {"lat": 53.3560900353088, "long": -6.39993297587383, "id": 2214, "name": "Clarion Hotel"}, {"lat": 53.3582062275912, "long": -6.40897316569564, "id": 2215, "name": "St Loman's Hospital"}, {"lat": 53.3521303355573, "long": -6.43616336857739, "id": 7184, "name": "Esker Lane"}, {"lat": 53.3509413241312, "long": -6.45112295330858, "id": 7050, "name": "Hillcrest"}, {"lat": 53.354762217692, "long": -6.46092931620595, "id": 7185, "name": "Woodview"}, {"lat": 53.3567240019032, "long": -6.4653054924118, "id": 7186, "name": "Lucan Spa Hotel"}, {"lat": 53.3575628311409, "long": -6.46763403856295, "id": 7187, "name": "Kew Park"}, {"lat": 53.3605354601981, "long": -6.47869059494902, "id": 3954, "name": "Springfield Hotel"}, {"lat": 53.3616765979759, "long": -6.48290199123004, "id": 3955, "name": "Cooldrinagh Terrace"}, {"lat": 53.3621337660306, "long": -6.4849291580538, "id": 3956, "name": "Salmon Leap"}, {"lat": 53.3643398773995, "long": -6.48666900722305, "id": 3957, "name": "Leixlip"}, {"lat": 53.3636014178678, "long": -6.49081218507201, "id": 3958, "name": "St Mary's Church"}, {"lat": 53.3656684472139, "long": -6.49293296285402, "id": 3959, "name": "Our Lady's Nativity"}, {"lat": 53.3669485725515, "long": -6.49751601163105, "id": 3960, "name": "Ryevale Lawns"}, {"lat": 53.3659040367575, "long": -6.50308246822493, "id": 6156, "name": "Leixlip GAA Club"}, {"lat": 53.3653092358809, "long": -6.50582305239289, "id": 6165, "name": "Oaklawn"}, {"lat": 53.364943472027, "long": -6.50891618300011, "id": 6157, "name": "Easton Road"}, {"lat": 53.3650906276146, "long": -6.51495151567441, "id": 6158, "name": "Barnhall Road"}, {"lat": 53.3729965366352, "long": -6.52119899161507, "id": 3964, "name": "Intel Entrance 1"}, {"lat": 53.3743709166239, "long": -6.52841052385461, "id": 3965, "name": "Intel Entrance 2"}, {"lat": 53.3779548870301, "long": -6.55397411062419, "id": 3968, "name": "Carton House"}, {"lat": 53.3819527630466, "long": -6.58609704500148, "id": 3966, "name": "Maynooth SC"}, {"lat": 53.3817579998314, "long": -6.5901470450239, "id": 5113, "name": "Maynooth"}, {"lat": 53.3764500204745, "long": -6.58742161236595, "id": 3918, "name": "Straffan Road"}, {"lat": 53.3724015197697, "long": -6.58935900125585, "id": 5114, "name": "Kingsbry"}], "66X_96": [{"lat": 53.3729384386305, "long": -6.5891609143013, "id": 3980, "name": "Kingsbry"}, {"lat": 53.3765331890879, "long": -6.58761424896909, "id": 6089, "name": "Old Greenfield Rd"}, {"lat": 53.3819989745355, "long": -6.59000379690051, "id": 3981, "name": "Maynooth"}, {"lat": 53.3821078907791, "long": -6.58553572475072, "id": 3982, "name": "Maynooth SC"}, {"lat": 53.3780202649437, "long": -6.55269430118181, "id": 3983, "name": "Carton House"}, {"lat": 53.3741141671536, "long": -6.52654072611888, "id": 3985, "name": "Intel Extrance 2"}, {"lat": 53.3737778332109, "long": -6.52477890467049, "id": 3986, "name": "Intel Entrance 1"}, {"lat": 53.370963472172, "long": -6.51237278075418, "id": 3987, "name": "Leixlip Amenities"}, {"lat": 53.3695071320702, "long": -6.50587149134822, "id": 3989, "name": "Louisa Bridge Stn"}, {"lat": 53.3678139203348, "long": -6.49985982979714, "id": 3990, "name": "Ryevale Lawns"}, {"lat": 53.3657541119138, "long": -6.49259936013715, "id": 3991, "name": "Our Lady's Nativity"}, {"lat": 53.3644923764526, "long": -6.4873547931945, "id": 3998, "name": "Leixlip"}, {"lat": 53.3618367662143, "long": -6.48348227444092, "id": 3999, "name": "Cooldrinagh Terrace"}, {"lat": 53.3605396571647, "long": -6.47831483261286, "id": 4000, "name": "Springfield Hotel"}, {"lat": 53.3589228488587, "long": -6.47206238135664, "id": 4001, "name": "Liffey Valley Golf"}, {"lat": 53.3539420024164, "long": -6.45866046849816, "id": 7193, "name": "Tandy's Lane"}, {"lat": 53.3513053901371, "long": -6.44939732270116, "id": 7049, "name": "Vesey Park"}, {"lat": 53.359144983556, "long": -6.41467742104277, "id": 2236, "name": "Ballyowen Lane"}, {"lat": 53.3561684706184, "long": -6.39172740046691, "id": 2239, "name": "Liffey Valley SC"}, {"lat": 53.3549292563171, "long": -6.37126802262205, "id": 2241, "name": "Kennelsfort Road"}, {"lat": 53.3539273217415, "long": -6.36700981772815, "id": 2242, "name": "The Oval"}, {"lat": 53.3431789302767, "long": -6.31538083570425, "id": 7435, "name": "Memorial Gardens"}, {"lat": 53.3434371042603, "long": -6.31139066326813, "id": 2722, "name": "Chapelizod Bypass"}, {"lat": 53.3461643943043, "long": -6.29271836681323, "id": 4413, "name": "Heuston Station"}, {"lat": 53.3470736855785, "long": -6.28467627539544, "id": 1476, "name": "Sarsfield Quay"}, {"lat": 53.3463358924194, "long": -6.27838250402172, "id": 7453, "name": "Arran Quay"}, {"lat": 53.3456460888719, "long": -6.27294312668559, "id": 1478, "name": "Four Courts"}, {"lat": 53.3459159600301, "long": -6.26923734421882, "id": 1479, "name": "Ormond Quay Upper"}, {"lat": 53.3470973047636, "long": -6.2614690836473, "id": 315, "name": "Bachelors Walk"}, {"lat": 53.3462516394318, "long": -6.25771846673942, "id": 336, "name": "D'Olier Street"}, {"lat": 53.3426061451661, "long": -6.25612494578256, "id": 406, "name": "Nassau Street"}, {"lat": 53.339930803028, "long": -6.25572351873592, "id": 747, "name": "Kildare Street"}, {"lat": 53.3385095343971, "long": -6.25503066600713, "id": 748, "name": "Huguenot Cemetery"}, {"lat": 53.3376207009532, "long": -6.25080214718473, "id": 749, "name": "Baggot St Lower"}, {"lat": 53.3365710800776, "long": -6.24848750327109, "id": 750, "name": "Fitzwilliam Street"}, {"lat": 53.3353205479273, "long": -6.24657163552751, "id": 751, "name": "Herbert Street"}, {"lat": 53.3336716542353, "long": -6.24446202003109, "id": 752, "name": "Baggot St Upper"}, {"lat": 53.3324533902718, "long": -6.24352105457139, "id": 753, "name": "Waterloo Road"}, {"lat": 53.330783782374, "long": -6.24428032727376, "id": 754, "name": "Burlington Road"}, {"lat": 53.3288280456981, "long": -6.24514136798765, "id": 755, "name": "Wellington Lane"}, {"lat": 53.3263997617809, "long": -6.24259874670305, "id": 756, "name": "Royal Hospital"}, {"lat": 53.324081337159, "long": -6.23958650985933, "id": 757, "name": "Donnybrook Village"}, {"lat": 53.3226869429553, "long": -6.2376773804315, "id": 758, "name": "Victoria Avenue"}, {"lat": 53.3203488508448, "long": -6.23334551683728, "id": 759, "name": "Donnybrook Stadium"}, {"lat": 53.318330187289, "long": -6.23056195593035, "id": 760, "name": "Donnybrook Church"}, {"lat": 53.3161004007996, "long": -6.22748721370695, "id": 761, "name": "Teresian School"}, {"lat": 53.3145170648506, "long": -6.22437094406488, "id": 762, "name": "RTE"}, {"lat": 53.3123201447844, "long": -6.2211003190802, "id": 763, "name": "Belfield Court"}, {"lat": 53.3048966218259, "long": -6.21693731714651, "id": 4952, "name": "UCD"}], "66X_99": [{"lat": 53.3544467335227, "long": -6.50827613102709, "id": 4003, "name": "Hewlett Packard"}, {"lat": 53.3624098156569, "long": -6.5003802360209, "id": 4404, "name": "Castletown"}, {"lat": 53.3642504993147, "long": -6.49666432714375, "id": 4405, "name": "Highfield Park"}, {"lat": 53.3657541119138, "long": -6.49259936013715, "id": 3991, "name": "Our Lady's Nativity"}, {"lat": 53.3644923764526, "long": -6.4873547931945, "id": 3998, "name": "Leixlip"}, {"lat": 53.3618367662143, "long": -6.48348227444092, "id": 3999, "name": "Cooldrinagh Terrace"}, {"lat": 53.3605396571647, "long": -6.47831483261286, "id": 4000, "name": "Springfield Hotel"}, {"lat": 53.3589228488587, "long": -6.47206238135664, "id": 4001, "name": "Liffey Valley Golf"}, {"lat": 53.3539420024164, "long": -6.45866046849816, "id": 7193, "name": "Tandy's Lane"}, {"lat": 53.3513053901371, "long": -6.44939732270116, "id": 7049, "name": "Vesey Park"}, {"lat": 53.359144983556, "long": -6.41467742104277, "id": 2236, "name": "Ballyowen Lane"}, {"lat": 53.3561684706184, "long": -6.39172740046691, "id": 2239, "name": "Liffey Valley SC"}, {"lat": 53.3549292563171, "long": -6.37126802262205, "id": 2241, "name": "Kennelsfort Road"}, {"lat": 53.3539273217415, "long": -6.36700981772815, "id": 2242, "name": "The Oval"}, {"lat": 53.3431789302767, "long": -6.31538083570425, "id": 7435, "name": "Memorial Gardens"}, {"lat": 53.3434371042603, "long": -6.31139066326813, "id": 2722, "name": "Chapelizod Bypass"}, {"lat": 53.3461643943043, "long": -6.29271836681323, "id": 4413, "name": "Heuston Station"}, {"lat": 53.3470736855785, "long": -6.28467627539544, "id": 1476, "name": "Sarsfield Quay"}, {"lat": 53.3463358924194, "long": -6.27838250402172, "id": 7453, "name": "Arran Quay"}, {"lat": 53.3456460888719, "long": -6.27294312668559, "id": 1478, "name": "Four Courts"}, {"lat": 53.3459159600301, "long": -6.26923734421882, "id": 1479, "name": "Ormond Quay Upper"}, {"lat": 53.3470973047636, "long": -6.2614690836473, "id": 315, "name": "Bachelors Walk"}, {"lat": 53.3462516394318, "long": -6.25771846673942, "id": 336, "name": "D'Olier Street"}, {"lat": 53.3426061451661, "long": -6.25612494578256, "id": 406, "name": "Nassau Street"}, {"lat": 53.339930803028, "long": -6.25572351873592, "id": 747, "name": "Kildare Street"}, {"lat": 53.3385095343971, "long": -6.25503066600713, "id": 748, "name": "Huguenot Cemetery"}, {"lat": 53.3376207009532, "long": -6.25080214718473, "id": 749, "name": "Baggot St Lower"}, {"lat": 53.3365710800776, "long": -6.24848750327109, "id": 750, "name": "Fitzwilliam Street"}, {"lat": 53.3353205479273, "long": -6.24657163552751, "id": 751, "name": "Herbert Street"}, {"lat": 53.3336716542353, "long": -6.24446202003109, "id": 752, "name": "Baggot St Upper"}, {"lat": 53.3324533902718, "long": -6.24352105457139, "id": 753, "name": "Waterloo Road"}, {"lat": 53.330783782374, "long": -6.24428032727376, "id": 754, "name": "Burlington Road"}, {"lat": 53.3288280456981, "long": -6.24514136798765, "id": 755, "name": "Wellington Lane"}, {"lat": 53.3263997617809, "long": -6.24259874670305, "id": 756, "name": "Royal Hospital"}, {"lat": 53.324081337159, "long": -6.23958650985933, "id": 757, "name": "Donnybrook Village"}, {"lat": 53.3226869429553, "long": -6.2376773804315, "id": 758, "name": "Victoria Avenue"}, {"lat": 53.3203488508448, "long": -6.23334551683728, "id": 759, "name": "Donnybrook Stadium"}, {"lat": 53.318330187289, "long": -6.23056195593035, "id": 760, "name": "Donnybrook Church"}, {"lat": 53.3161004007996, "long": -6.22748721370695, "id": 761, "name": "Teresian School"}, {"lat": 53.3145170648506, "long": -6.22437094406488, "id": 762, "name": "RTE"}, {"lat": 53.3123201447844, "long": -6.2211003190802, "id": 763, "name": "Belfield Court"}, {"lat": 53.3048966218259, "long": -6.21693731714651, "id": 4952, "name": "UCD"}], "66X_92": [{"lat": 53.3048966218259, "long": -6.21693731714651, "id": 4952, "name": "UCD"}, {"lat": 53.3094181940068, "long": -6.21877482979347, "id": 768, "name": "UCD N11 Entrance"}, {"lat": 53.3119010923178, "long": -6.22132785711797, "id": 769, "name": "Belfield Court"}, {"lat": 53.3146361875625, "long": -6.22573181130967, "id": 770, "name": "RTE"}, {"lat": 53.315880069244, "long": -6.22778152242798, "id": 771, "name": "Teresian School"}, {"lat": 53.3184852574564, "long": -6.23132106360088, "id": 772, "name": "Donnybrook Garage"}, {"lat": 53.3199163484799, "long": -6.23327331931076, "id": 773, "name": "Donnybrook Road"}, {"lat": 53.3216121235643, "long": -6.23549999641969, "id": 774, "name": "Donnybrook Garda Stn"}, {"lat": 53.3234897098062, "long": -6.23908544721608, "id": 775, "name": "Donnybrook Village"}, {"lat": 53.3254792402838, "long": -6.2417358210607, "id": 776, "name": "Morehampton Terrace"}, {"lat": 53.3269721601116, "long": -6.24362614364866, "id": 777, "name": "Royal Hospital"}, {"lat": 53.3286887363318, "long": -6.24544736264849, "id": 779, "name": "Waterloo Road"}, {"lat": 53.3310633511706, "long": -6.24434391821202, "id": 780, "name": "Burlington Road"}, {"lat": 53.3326262714266, "long": -6.24366410261758, "id": 781, "name": "Baggot Street"}, {"lat": 53.3335838144594, "long": -6.24460076754328, "id": 782, "name": "Baggot St Upper"}, {"lat": 53.3353085373768, "long": -6.2469775639698, "id": 783, "name": "Baggot St Lower"}, {"lat": 53.3364567280923, "long": -6.24865737146509, "id": 784, "name": "Fitzwilliam Street"}, {"lat": 53.3371058976042, "long": -6.25185937348658, "id": 785, "name": "Pembroke St Lower"}, {"lat": 53.3351467148295, "long": -6.25617403577253, "id": 786, "name": "Embassy of Malta"}, null, {"lat": 53.3388796212347, "long": -6.25698283049022, "id": 791, "name": "Stephen's Green Nth"}, null, {"lat": 53.342037080113, "long": -6.25347487958774, "id": 7585, "name": "National Gallery"}, {"lat": 53.3444579282255, "long": -6.25122815978981, "id": 7587, "name": "Science Gallery"}, {"lat": 53.3454758154714, "long": -6.25629319407125, "id": 345, "name": "Pearse St Garda Stn"}, {"lat": 53.3464177131193, "long": -6.25924373595412, "id": 318, "name": "Westmoreland Street"}, {"lat": 53.3454764728287, "long": -6.26620615548425, "id": 312, "name": "Wellington Quay"}, {"lat": 53.3450180037747, "long": -6.27426019093106, "id": 1444, "name": "Merchant's Quay"}, {"lat": 53.3456784102547, "long": -6.27828883961715, "id": 1445, "name": "Usher's Quay"}, {"lat": 53.346629644517, "long": -6.28817874961114, "id": 1447, "name": "Victoria Quay"}, {"lat": 53.3458840623229, "long": -6.29385604999962, "id": 2637, "name": "Heuston Station"}, {"lat": 53.3432718551678, "long": -6.31051108491757, "id": 2721, "name": "Chapelizod Bypass"}, {"lat": 53.3429541422341, "long": -6.3153746792035, "id": 7012, "name": "Memorial Gardens"}, {"lat": 53.3532737532198, "long": -6.36457116457726, "id": 2201, "name": "Palmerstown Drive"}, {"lat": 53.3547555333603, "long": -6.37171030536814, "id": 4401, "name": "Kennelsfort"}, {"lat": 53.3557135565417, "long": -6.39198489791745, "id": 2213, "name": "Liffey Valley SC"}, {"lat": 53.3560900353088, "long": -6.39993297587383, "id": 2214, "name": "Clarion Hotel"}, {"lat": 53.3582062275912, "long": -6.40897316569564, "id": 2215, "name": "St Loman's Hospital"}, {"lat": 53.3521303355573, "long": -6.43616336857739, "id": 7184, "name": "Esker Lane"}, {"lat": 53.3509413241312, "long": -6.45112295330858, "id": 7050, "name": "Hillcrest"}, {"lat": 53.354762217692, "long": -6.46092931620595, "id": 7185, "name": "Woodview"}, {"lat": 53.3567240019032, "long": -6.4653054924118, "id": 7186, "name": "Lucan Spa Hotel"}, {"lat": 53.3575628311409, "long": -6.46763403856295, "id": 7187, "name": "Kew Park"}, {"lat": 53.3605354601981, "long": -6.47869059494902, "id": 3954, "name": "Springfield Hotel"}, {"lat": 53.3616765979759, "long": -6.48290199123004, "id": 3955, "name": "Cooldrinagh Terrace"}, {"lat": 53.3621337660306, "long": -6.4849291580538, "id": 3956, "name": "Salmon Leap"}, {"lat": 53.3643398773995, "long": -6.48666900722305, "id": 3957, "name": "Leixlip"}, {"lat": 53.3636014178678, "long": -6.49081218507201, "id": 3958, "name": "St Mary's Church"}, {"lat": 53.3656684472139, "long": -6.49293296285402, "id": 3959, "name": "Our Lady's Nativity"}, {"lat": 53.3669485725515, "long": -6.49751601163105, "id": 3960, "name": "Ryevale Lawns"}, {"lat": 53.3659040367575, "long": -6.50308246822493, "id": 6156, "name": "Leixlip GAA Club"}, {"lat": 53.3653092358809, "long": -6.50582305239289, "id": 6165, "name": "Oaklawn"}, {"lat": 53.364943472027, "long": -6.50891618300011, "id": 6157, "name": "Easton Road"}, {"lat": 53.3650906276146, "long": -6.51495151567441, "id": 6158, "name": "Barnhall Road"}, {"lat": 53.365380741466, "long": -6.52239438968379, "id": 7314, "name": "Beechpark Estate"}, {"lat": 53.3729965366352, "long": -6.52119899161507, "id": 3964, "name": "Intel Entrance 1"}, {"lat": 53.3743709166239, "long": -6.52841052385461, "id": 3965, "name": "Intel Entrance 2"}, {"lat": 53.3779548870301, "long": -6.55397411062419, "id": 3968, "name": "Carton House"}, {"lat": 53.3819527630466, "long": -6.58609704500148, "id": 3966, "name": "Maynooth SC"}, {"lat": 53.3817579998314, "long": -6.5901470450239, "id": 5113, "name": "Maynooth"}, {"lat": 53.3764500204745, "long": -6.58742161236595, "id": 3918, "name": "Straffan Road"}, {"lat": 53.3724015197697, "long": -6.58935900125585, "id": 5114, "name": "Kingsbry"}], "66X_101": [{"lat": 53.364685361356, "long": -6.51705421045058, "id": 6164, "name": "Gleneaston Centre"}, {"lat": 53.3649122273901, "long": -6.50929292388115, "id": 6159, "name": "Easton Road"}, {"lat": 53.3652342800236, "long": -6.50773399127603, "id": 6160, "name": "Accommodation Road"}, {"lat": 53.3664311267237, "long": -6.50139604276338, "id": 6161, "name": "Scoil Bhride"}, {"lat": 53.3657541119138, "long": -6.49259936013715, "id": 3991, "name": "Our Lady's Nativity"}, {"lat": 53.3644923764526, "long": -6.4873547931945, "id": 3998, "name": "Leixlip"}, {"lat": 53.3618367662143, "long": -6.48348227444092, "id": 3999, "name": "Cooldrinagh Terrace"}, {"lat": 53.3605396571647, "long": -6.47831483261286, "id": 4000, "name": "Springfield Hotel"}, {"lat": 53.3589228488587, "long": -6.47206238135664, "id": 4001, "name": "Liffey Valley Golf"}, {"lat": 53.3539420024164, "long": -6.45866046849816, "id": 7193, "name": "Tandy's Lane"}, {"lat": 53.3513053901371, "long": -6.44939732270116, "id": 7049, "name": "Vesey Park"}, {"lat": 53.359144983556, "long": -6.41467742104277, "id": 2236, "name": "Ballyowen Lane"}, {"lat": 53.3561684706184, "long": -6.39172740046691, "id": 2239, "name": "Liffey Valley SC"}, {"lat": 53.3549292563171, "long": -6.37126802262205, "id": 2241, "name": "Kennelsfort Road"}, {"lat": 53.3539273217415, "long": -6.36700981772815, "id": 2242, "name": "The Oval"}, {"lat": 53.3431789302767, "long": -6.31538083570425, "id": 7435, "name": "Memorial Gardens"}, {"lat": 53.3434371042603, "long": -6.31139066326813, "id": 2722, "name": "Chapelizod Bypass"}, {"lat": 53.3461643943043, "long": -6.29271836681323, "id": 4413, "name": "Heuston Station"}, {"lat": 53.3470736855785, "long": -6.28467627539544, "id": 1476, "name": "Sarsfield Quay"}, {"lat": 53.3463358924194, "long": -6.27838250402172, "id": 7453, "name": "Arran Quay"}, {"lat": 53.3456460888719, "long": -6.27294312668559, "id": 1478, "name": "Four Courts"}, {"lat": 53.3459159600301, "long": -6.26923734421882, "id": 1479, "name": "Ormond Quay Upper"}, {"lat": 53.3470973047636, "long": -6.2614690836473, "id": 315, "name": "Bachelors Walk"}, {"lat": 53.3462516394318, "long": -6.25771846673942, "id": 336, "name": "D'Olier Street"}, {"lat": 53.3426061451661, "long": -6.25612494578256, "id": 406, "name": "Nassau Street"}, {"lat": 53.339930803028, "long": -6.25572351873592, "id": 747, "name": "Kildare Street"}, {"lat": 53.3385095343971, "long": -6.25503066600713, "id": 748, "name": "Huguenot Cemetery"}, {"lat": 53.3376207009532, "long": -6.25080214718473, "id": 749, "name": "Baggot St Lower"}, {"lat": 53.3365710800776, "long": -6.24848750327109, "id": 750, "name": "Fitzwilliam Street"}, {"lat": 53.3353205479273, "long": -6.24657163552751, "id": 751, "name": "Herbert Street"}, {"lat": 53.3336716542353, "long": -6.24446202003109, "id": 752, "name": "Baggot St Upper"}, {"lat": 53.3324533902718, "long": -6.24352105457139, "id": 753, "name": "Waterloo Road"}, {"lat": 53.330783782374, "long": -6.24428032727376, "id": 754, "name": "Burlington Road"}, {"lat": 53.3288280456981, "long": -6.24514136798765, "id": 755, "name": "Wellington Lane"}, {"lat": 53.3263997617809, "long": -6.24259874670305, "id": 756, "name": "Royal Hospital"}, {"lat": 53.324081337159, "long": -6.23958650985933, "id": 757, "name": "Donnybrook Village"}, {"lat": 53.3226869429553, "long": -6.2376773804315, "id": 758, "name": "Victoria Avenue"}, {"lat": 53.3203488508448, "long": -6.23334551683728, "id": 759, "name": "Donnybrook Stadium"}, {"lat": 53.318330187289, "long": -6.23056195593035, "id": 760, "name": "Donnybrook Church"}, {"lat": 53.3161004007996, "long": -6.22748721370695, "id": 761, "name": "Teresian School"}, {"lat": 53.3145170648506, "long": -6.22437094406488, "id": 762, "name": "RTE"}, {"lat": 53.3123201447844, "long": -6.2211003190802, "id": 763, "name": "Belfield Court"}, {"lat": 53.3048966218259, "long": -6.21693731714651, "id": 4952, "name": "UCD"}], "66X_93": [{"lat": 53.3048966218259, "long": -6.21693731714651, "id": 4952, "name": "UCD"}, {"lat": 53.3094181940068, "long": -6.21877482979347, "id": 768, "name": "UCD N11 Entrance"}, {"lat": 53.3119010923178, "long": -6.22132785711797, "id": 769, "name": "Belfield Court"}, {"lat": 53.3146361875625, "long": -6.22573181130967, "id": 770, "name": "RTE"}, {"lat": 53.315880069244, "long": -6.22778152242798, "id": 771, "name": "Teresian School"}, {"lat": 53.3184852574564, "long": -6.23132106360088, "id": 772, "name": "Donnybrook Garage"}, {"lat": 53.3199163484799, "long": -6.23327331931076, "id": 773, "name": "Donnybrook Road"}, {"lat": 53.3216121235643, "long": -6.23549999641969, "id": 774, "name": "Donnybrook Garda Stn"}, {"lat": 53.3234897098062, "long": -6.23908544721608, "id": 775, "name": "Donnybrook Village"}, {"lat": 53.3254792402838, "long": -6.2417358210607, "id": 776, "name": "Morehampton Terrace"}, {"lat": 53.3269721601116, "long": -6.24362614364866, "id": 777, "name": "Royal Hospital"}, {"lat": 53.3286887363318, "long": -6.24544736264849, "id": 779, "name": "Waterloo Road"}, {"lat": 53.3310633511706, "long": -6.24434391821202, "id": 780, "name": "Burlington Road"}, {"lat": 53.3326262714266, "long": -6.24366410261758, "id": 781, "name": "Baggot Street"}, {"lat": 53.3335838144594, "long": -6.24460076754328, "id": 782, "name": "Baggot St Upper"}, {"lat": 53.3353085373768, "long": -6.2469775639698, "id": 783, "name": "Baggot St Lower"}, {"lat": 53.3364567280923, "long": -6.24865737146509, "id": 784, "name": "Fitzwilliam Street"}, {"lat": 53.3371058976042, "long": -6.25185937348658, "id": 785, "name": "Pembroke St Lower"}, {"lat": 53.3351467148295, "long": -6.25617403577253, "id": 786, "name": "Embassy of Malta"}, null, {"lat": 53.3388796212347, "long": -6.25698283049022, "id": 791, "name": "Stephen's Green Nth"}, null, {"lat": 53.342037080113, "long": -6.25347487958774, "id": 7585, "name": "National Gallery"}, {"lat": 53.3444579282255, "long": -6.25122815978981, "id": 7587, "name": "Science Gallery"}, {"lat": 53.3454758154714, "long": -6.25629319407125, "id": 345, "name": "Pearse St Garda Stn"}, {"lat": 53.3464177131193, "long": -6.25924373595412, "id": 318, "name": "Westmoreland Street"}, {"lat": 53.3454764728287, "long": -6.26620615548425, "id": 312, "name": "Wellington Quay"}, {"lat": 53.3450180037747, "long": -6.27426019093106, "id": 1444, "name": "Merchant's Quay"}, {"lat": 53.3456784102547, "long": -6.27828883961715, "id": 1445, "name": "Usher's Quay"}, {"lat": 53.346629644517, "long": -6.28817874961114, "id": 1447, "name": "Victoria Quay"}, {"lat": 53.3458840623229, "long": -6.29385604999962, "id": 2637, "name": "Heuston Station"}, {"lat": 53.3432718551678, "long": -6.31051108491757, "id": 2721, "name": "Chapelizod Bypass"}, {"lat": 53.3429541422341, "long": -6.3153746792035, "id": 7012, "name": "Memorial Gardens"}, {"lat": 53.3532737532198, "long": -6.36457116457726, "id": 2201, "name": "Palmerstown Drive"}, {"lat": 53.3547555333603, "long": -6.37171030536814, "id": 4401, "name": "Kennelsfort"}, {"lat": 53.3557135565417, "long": -6.39198489791745, "id": 2213, "name": "Liffey Valley SC"}, {"lat": 53.3560900353088, "long": -6.39993297587383, "id": 2214, "name": "Clarion Hotel"}, {"lat": 53.3582062275912, "long": -6.40897316569564, "id": 2215, "name": "St Loman's Hospital"}, {"lat": 53.3521303355573, "long": -6.43616336857739, "id": 7184, "name": "Esker Lane"}, {"lat": 53.3509413241312, "long": -6.45112295330858, "id": 7050, "name": "Hillcrest"}, {"lat": 53.354762217692, "long": -6.46092931620595, "id": 7185, "name": "Woodview"}, {"lat": 53.3567240019032, "long": -6.4653054924118, "id": 7186, "name": "Lucan Spa Hotel"}, {"lat": 53.3575628311409, "long": -6.46763403856295, "id": 7187, "name": "Kew Park"}, {"lat": 53.3605354601981, "long": -6.47869059494902, "id": 3954, "name": "Springfield Hotel"}, {"lat": 53.3616765979759, "long": -6.48290199123004, "id": 3955, "name": "Cooldrinagh Terrace"}, {"lat": 53.3621337660306, "long": -6.4849291580538, "id": 3956, "name": "Salmon Leap"}, {"lat": 53.3643398773995, "long": -6.48666900722305, "id": 3957, "name": "Leixlip"}, {"lat": 53.3636014178678, "long": -6.49081218507201, "id": 3958, "name": "St Mary's Church"}, {"lat": 53.3656684472139, "long": -6.49293296285402, "id": 3959, "name": "Our Lady's Nativity"}, {"lat": 53.3658732489185, "long": -6.49563047860417, "id": 7234, "name": "Old Hill"}, {"lat": 53.3640016013291, "long": -6.4968834498413, "id": 4002, "name": "Celbridge Road"}, {"lat": 53.3623339815014, "long": -6.50006737202277, "id": 5112, "name": "Leixlip Park"}, {"lat": 53.3544467335227, "long": -6.50827613102709, "id": 4003, "name": "Hewlett Packard"}], "66X_97": [{"lat": 53.3729384386305, "long": -6.5891609143013, "id": 3980, "name": "Kingsbry"}, {"lat": 53.3765331890879, "long": -6.58761424896909, "id": 6089, "name": "Old Greenfield Rd"}, {"lat": 53.3819989745355, "long": -6.59000379690051, "id": 3981, "name": "Maynooth"}, {"lat": 53.3821078907791, "long": -6.58553572475072, "id": 3982, "name": "Maynooth SC"}, {"lat": 53.3780202649437, "long": -6.55269430118181, "id": 3983, "name": "Carton House"}, {"lat": 53.3741141671536, "long": -6.52654072611888, "id": 3985, "name": "Intel Extrance 2"}, {"lat": 53.3737778332109, "long": -6.52477890467049, "id": 3986, "name": "Intel Entrance 1"}, {"lat": 53.3654580047787, "long": -6.52282747446692, "id": 7313, "name": "Beechpark Estate"}, {"lat": 53.364685361356, "long": -6.51705421045058, "id": 6164, "name": "Gleneaston Centre"}, {"lat": 53.3649122273901, "long": -6.50929292388115, "id": 6159, "name": "Easton Road"}, {"lat": 53.3652342800236, "long": -6.50773399127603, "id": 6160, "name": "Accommodation Road"}, {"lat": 53.3664311267237, "long": -6.50139604276338, "id": 6161, "name": "Scoil Bhride"}, {"lat": 53.3657541119138, "long": -6.49259936013715, "id": 3991, "name": "Our Lady's Nativity"}, {"lat": 53.3644923764526, "long": -6.4873547931945, "id": 3998, "name": "Leixlip"}, {"lat": 53.3618367662143, "long": -6.48348227444092, "id": 3999, "name": "Cooldrinagh Terrace"}, {"lat": 53.3605396571647, "long": -6.47831483261286, "id": 4000, "name": "Springfield Hotel"}, {"lat": 53.3589228488587, "long": -6.47206238135664, "id": 4001, "name": "Liffey Valley Golf"}, {"lat": 53.3539420024164, "long": -6.45866046849816, "id": 7193, "name": "Tandy's Lane"}, {"lat": 53.3513053901371, "long": -6.44939732270116, "id": 7049, "name": "Vesey Park"}, {"lat": 53.359144983556, "long": -6.41467742104277, "id": 2236, "name": "Ballyowen Lane"}, {"lat": 53.3561684706184, "long": -6.39172740046691, "id": 2239, "name": "Liffey Valley SC"}, {"lat": 53.3549292563171, "long": -6.37126802262205, "id": 2241, "name": "Kennelsfort Road"}, {"lat": 53.3539273217415, "long": -6.36700981772815, "id": 2242, "name": "The Oval"}, {"lat": 53.3431789302767, "long": -6.31538083570425, "id": 7435, "name": "Memorial Gardens"}, {"lat": 53.3434371042603, "long": -6.31139066326813, "id": 2722, "name": "Chapelizod Bypass"}, {"lat": 53.3461643943043, "long": -6.29271836681323, "id": 4413, "name": "Heuston Station"}, {"lat": 53.3470736855785, "long": -6.28467627539544, "id": 1476, "name": "Sarsfield Quay"}, {"lat": 53.3463358924194, "long": -6.27838250402172, "id": 7453, "name": "Arran Quay"}, {"lat": 53.3456460888719, "long": -6.27294312668559, "id": 1478, "name": "Four Courts"}, {"lat": 53.3459159600301, "long": -6.26923734421882, "id": 1479, "name": "Ormond Quay Upper"}, {"lat": 53.3470973047636, "long": -6.2614690836473, "id": 315, "name": "Bachelors Walk"}, {"lat": 53.3462516394318, "long": -6.25771846673942, "id": 336, "name": "D'Olier Street"}, {"lat": 53.3426061451661, "long": -6.25612494578256, "id": 406, "name": "Nassau Street"}, {"lat": 53.339930803028, "long": -6.25572351873592, "id": 747, "name": "Kildare Street"}, {"lat": 53.3385095343971, "long": -6.25503066600713, "id": 748, "name": "Huguenot Cemetery"}, {"lat": 53.3376207009532, "long": -6.25080214718473, "id": 749, "name": "Baggot St Lower"}, {"lat": 53.3365710800776, "long": -6.24848750327109, "id": 750, "name": "Fitzwilliam Street"}, {"lat": 53.3353205479273, "long": -6.24657163552751, "id": 751, "name": "Herbert Street"}, {"lat": 53.3336716542353, "long": -6.24446202003109, "id": 752, "name": "Baggot St Upper"}, {"lat": 53.3324533902718, "long": -6.24352105457139, "id": 753, "name": "Waterloo Road"}, {"lat": 53.330783782374, "long": -6.24428032727376, "id": 754, "name": "Burlington Road"}, {"lat": 53.3288280456981, "long": -6.24514136798765, "id": 755, "name": "Wellington Lane"}, {"lat": 53.3263997617809, "long": -6.24259874670305, "id": 756, "name": "Royal Hospital"}, {"lat": 53.324081337159, "long": -6.23958650985933, "id": 757, "name": "Donnybrook Village"}, {"lat": 53.3226869429553, "long": -6.2376773804315, "id": 758, "name": "Victoria Avenue"}, {"lat": 53.3203488508448, "long": -6.23334551683728, "id": 759, "name": "Donnybrook Stadium"}, {"lat": 53.318330187289, "long": -6.23056195593035, "id": 760, "name": "Donnybrook Church"}, {"lat": 53.3161004007996, "long": -6.22748721370695, "id": 761, "name": "Teresian School"}, {"lat": 53.3145170648506, "long": -6.22437094406488, "id": 762, "name": "RTE"}, {"lat": 53.3123201447844, "long": -6.2211003190802, "id": 763, "name": "Belfield Court"}, {"lat": 53.3048966218259, "long": -6.21693731714651, "id": 4952, "name": "UCD"}], "66X_95": [{"lat": 53.3048966218259, "long": -6.21693731714651, "id": 4952, "name": "UCD"}, {"lat": 53.3094181940068, "long": -6.21877482979347, "id": 768, "name": "UCD N11 Entrance"}, {"lat": 53.3119010923178, "long": -6.22132785711797, "id": 769, "name": "Belfield Court"}, {"lat": 53.3146361875625, "long": -6.22573181130967, "id": 770, "name": "RTE"}, {"lat": 53.315880069244, "long": -6.22778152242798, "id": 771, "name": "Teresian School"}, {"lat": 53.3184852574564, "long": -6.23132106360088, "id": 772, "name": "Donnybrook Garage"}, {"lat": 53.3199163484799, "long": -6.23327331931076, "id": 773, "name": "Donnybrook Road"}, {"lat": 53.3216121235643, "long": -6.23549999641969, "id": 774, "name": "Donnybrook Garda Stn"}, {"lat": 53.3234897098062, "long": -6.23908544721608, "id": 775, "name": "Donnybrook Village"}, {"lat": 53.3254792402838, "long": -6.2417358210607, "id": 776, "name": "Morehampton Terrace"}, {"lat": 53.3269721601116, "long": -6.24362614364866, "id": 777, "name": "Royal Hospital"}, {"lat": 53.3286887363318, "long": -6.24544736264849, "id": 779, "name": "Waterloo Road"}, {"lat": 53.3310633511706, "long": -6.24434391821202, "id": 780, "name": "Burlington Road"}, {"lat": 53.3326262714266, "long": -6.24366410261758, "id": 781, "name": "Baggot Street"}, {"lat": 53.3335838144594, "long": -6.24460076754328, "id": 782, "name": "Baggot St Upper"}, {"lat": 53.3353085373768, "long": -6.2469775639698, "id": 783, "name": "Baggot St Lower"}, {"lat": 53.3364567280923, "long": -6.24865737146509, "id": 784, "name": "Fitzwilliam Street"}, {"lat": 53.3371058976042, "long": -6.25185937348658, "id": 785, "name": "Pembroke St Lower"}, {"lat": 53.3351467148295, "long": -6.25617403577253, "id": 786, "name": "Embassy of Malta"}, {"lat": 53.3388796212347, "long": -6.25698283049022, "id": 791, "name": "Stephen's Green Nth"}, null, null, {"lat": 53.342037080113, "long": -6.25347487958774, "id": 7585, "name": "National Gallery"}, {"lat": 53.3444579282255, "long": -6.25122815978981, "id": 7587, "name": "Science Gallery"}, {"lat": 53.3454758154714, "long": -6.25629319407125, "id": 345, "name": "Pearse St Garda Stn"}, {"lat": 53.3464177131193, "long": -6.25924373595412, "id": 318, "name": "Westmoreland Street"}, {"lat": 53.3454764728287, "long": -6.26620615548425, "id": 312, "name": "Wellington Quay"}, {"lat": 53.3450180037747, "long": -6.27426019093106, "id": 1444, "name": "Merchant's Quay"}, {"lat": 53.3456784102547, "long": -6.27828883961715, "id": 1445, "name": "Usher's Quay"}, {"lat": 53.346629644517, "long": -6.28817874961114, "id": 1447, "name": "Victoria Quay"}, {"lat": 53.3458840623229, "long": -6.29385604999962, "id": 2637, "name": "Heuston Station"}, {"lat": 53.3432718551678, "long": -6.31051108491757, "id": 2721, "name": "Chapelizod Bypass"}, {"lat": 53.3429541422341, "long": -6.3153746792035, "id": 7012, "name": "Memorial Gardens"}, {"lat": 53.3532737532198, "long": -6.36457116457726, "id": 2201, "name": "Palmerstown Drive"}, {"lat": 53.3547555333603, "long": -6.37171030536814, "id": 4401, "name": "Kennelsfort"}, {"lat": 53.3557135565417, "long": -6.39198489791745, "id": 2213, "name": "Liffey Valley SC"}, {"lat": 53.3560900353088, "long": -6.39993297587383, "id": 2214, "name": "Clarion Hotel"}, {"lat": 53.3582062275912, "long": -6.40897316569564, "id": 2215, "name": "St Loman's Hospital"}, {"lat": 53.3521303355573, "long": -6.43616336857739, "id": 7184, "name": "Esker Lane"}, {"lat": 53.3509413241312, "long": -6.45112295330858, "id": 7050, "name": "Hillcrest"}, {"lat": 53.354762217692, "long": -6.46092931620595, "id": 7185, "name": "Woodview"}, {"lat": 53.3567240019032, "long": -6.4653054924118, "id": 7186, "name": "Lucan Spa Hotel"}, {"lat": 53.3575628311409, "long": -6.46763403856295, "id": 7187, "name": "Kew Park"}, {"lat": 53.3605354601981, "long": -6.47869059494902, "id": 3954, "name": "Springfield Hotel"}, {"lat": 53.3616765979759, "long": -6.48290199123004, "id": 3955, "name": "Cooldrinagh Terrace"}, {"lat": 53.3621337660306, "long": -6.4849291580538, "id": 3956, "name": "Salmon Leap"}, {"lat": 53.3643398773995, "long": -6.48666900722305, "id": 3957, "name": "Leixlip"}, {"lat": 53.3714458379687, "long": -6.4864020783494, "id": 3993, "name": "Captain's Hill"}, {"lat": 53.3724364586374, "long": -6.49294951412487, "id": 3994, "name": "River Forest"}], "66X_100": [{"lat": 53.3724364586374, "long": -6.49294951412487, "id": 3994, "name": "River Forest"}, {"lat": 53.372054107808, "long": -6.48901050639784, "id": 3995, "name": "River Forest"}, {"lat": 53.3711667701943, "long": -6.48636688848522, "id": 3996, "name": "Captain's Hill"}, {"lat": 53.3644923764526, "long": -6.4873547931945, "id": 3998, "name": "Leixlip"}, {"lat": 53.3618367662143, "long": -6.48348227444092, "id": 3999, "name": "Cooldrinagh Terrace"}, {"lat": 53.3605396571647, "long": -6.47831483261286, "id": 4000, "name": "Springfield Hotel"}, {"lat": 53.3589228488587, "long": -6.47206238135664, "id": 4001, "name": "Liffey Valley Golf"}, {"lat": 53.3539420024164, "long": -6.45866046849816, "id": 7193, "name": "Tandy's Lane"}, {"lat": 53.3513053901371, "long": -6.44939732270116, "id": 7049, "name": "Vesey Park"}, {"lat": 53.359144983556, "long": -6.41467742104277, "id": 2236, "name": "Ballyowen Lane"}, {"lat": 53.3561684706184, "long": -6.39172740046691, "id": 2239, "name": "Liffey Valley SC"}, {"lat": 53.3549292563171, "long": -6.37126802262205, "id": 2241, "name": "Kennelsfort Road"}, {"lat": 53.3539273217415, "long": -6.36700981772815, "id": 2242, "name": "The Oval"}, {"lat": 53.3431789302767, "long": -6.31538083570425, "id": 7435, "name": "Memorial Gardens"}, {"lat": 53.3434371042603, "long": -6.31139066326813, "id": 2722, "name": "Chapelizod Bypass"}, {"lat": 53.3461643943043, "long": -6.29271836681323, "id": 4413, "name": "Heuston Station"}, {"lat": 53.3470736855785, "long": -6.28467627539544, "id": 1476, "name": "Sarsfield Quay"}, {"lat": 53.3463358924194, "long": -6.27838250402172, "id": 7453, "name": "Arran Quay"}, {"lat": 53.3456460888719, "long": -6.27294312668559, "id": 1478, "name": "Four Courts"}, {"lat": 53.3459159600301, "long": -6.26923734421882, "id": 1479, "name": "Ormond Quay Upper"}, {"lat": 53.3470973047636, "long": -6.2614690836473, "id": 315, "name": "Bachelors Walk"}, {"lat": 53.3462516394318, "long": -6.25771846673942, "id": 336, "name": "D'Olier Street"}, {"lat": 53.3426061451661, "long": -6.25612494578256, "id": 406, "name": "Nassau Street"}, {"lat": 53.339930803028, "long": -6.25572351873592, "id": 747, "name": "Kildare Street"}, {"lat": 53.3385095343971, "long": -6.25503066600713, "id": 748, "name": "Huguenot Cemetery"}, {"lat": 53.3376207009532, "long": -6.25080214718473, "id": 749, "name": "Baggot St Lower"}, {"lat": 53.3365710800776, "long": -6.24848750327109, "id": 750, "name": "Fitzwilliam Street"}, {"lat": 53.3353205479273, "long": -6.24657163552751, "id": 751, "name": "Herbert Street"}, {"lat": 53.3336716542353, "long": -6.24446202003109, "id": 752, "name": "Baggot St Upper"}, {"lat": 53.3324533902718, "long": -6.24352105457139, "id": 753, "name": "Waterloo Road"}, {"lat": 53.330783782374, "long": -6.24428032727376, "id": 754, "name": "Burlington Road"}, {"lat": 53.3288280456981, "long": -6.24514136798765, "id": 755, "name": "Wellington Lane"}, {"lat": 53.3263997617809, "long": -6.24259874670305, "id": 756, "name": "Royal Hospital"}, {"lat": 53.324081337159, "long": -6.23958650985933, "id": 757, "name": "Donnybrook Village"}, {"lat": 53.3226869429553, "long": -6.2376773804315, "id": 758, "name": "Victoria Avenue"}, {"lat": 53.3203488508448, "long": -6.23334551683728, "id": 759, "name": "Donnybrook Stadium"}, {"lat": 53.318330187289, "long": -6.23056195593035, "id": 760, "name": "Donnybrook Church"}, {"lat": 53.3161004007996, "long": -6.22748721370695, "id": 761, "name": "Teresian School"}, {"lat": 53.3145170648506, "long": -6.22437094406488, "id": 762, "name": "RTE"}, {"lat": 53.3123201447844, "long": -6.2211003190802, "id": 763, "name": "Belfield Court"}, {"lat": 53.3048966218259, "long": -6.21693731714651, "id": 4952, "name": "UCD"}], "66X_102": [{"lat": 53.3729384386305, "long": -6.5891609143013, "id": 3980, "name": "Kingsbry"}, {"lat": 53.3765331890879, "long": -6.58761424896909, "id": 6089, "name": "Old Greenfield Rd"}, {"lat": 53.3819989745355, "long": -6.59000379690051, "id": 3981, "name": "Maynooth"}, {"lat": 53.3821078907791, "long": -6.58553572475072, "id": 3982, "name": "Maynooth SC"}, {"lat": 53.3780202649437, "long": -6.55269430118181, "id": 3983, "name": "Carton House"}, {"lat": 53.3741141671536, "long": -6.52654072611888, "id": 3985, "name": "Intel Extrance 2"}, {"lat": 53.3737778332109, "long": -6.52477890467049, "id": 3986, "name": "Intel Entrance 1"}, {"lat": 53.370963472172, "long": -6.51237278075418, "id": 3987, "name": "Leixlip Amenities"}, {"lat": 53.3695071320702, "long": -6.50587149134822, "id": 3989, "name": "Louisa Bridge Stn"}, {"lat": 53.3678139203348, "long": -6.49985982979714, "id": 3990, "name": "Ryevale Lawns"}, {"lat": 53.3657541119138, "long": -6.49259936013715, "id": 3991, "name": "Our Lady's Nativity"}, {"lat": 53.3644923764526, "long": -6.4873547931945, "id": 3998, "name": "Leixlip"}, {"lat": 53.3618367662143, "long": -6.48348227444092, "id": 3999, "name": "Cooldrinagh Terrace"}, {"lat": 53.3605396571647, "long": -6.47831483261286, "id": 4000, "name": "Springfield Hotel"}, {"lat": 53.3589228488587, "long": -6.47206238135664, "id": 4001, "name": "Liffey Valley Golf"}, {"lat": 53.3539420024164, "long": -6.45866046849816, "id": 7193, "name": "Tandy's Lane"}, {"lat": 53.3513053901371, "long": -6.44939732270116, "id": 7049, "name": "Vesey Park"}, {"lat": 53.359144983556, "long": -6.41467742104277, "id": 2236, "name": "Ballyowen Lane"}, {"lat": 53.3561684706184, "long": -6.39172740046691, "id": 2239, "name": "Liffey Valley SC"}, {"lat": 53.3549292563171, "long": -6.37126802262205, "id": 2241, "name": "Kennelsfort Road"}, {"lat": 53.3539273217415, "long": -6.36700981772815, "id": 2242, "name": "The Oval"}, {"lat": 53.3431789302767, "long": -6.31538083570425, "id": 7435, "name": "Memorial Gardens"}, {"lat": 53.3434371042603, "long": -6.31139066326813, "id": 2722, "name": "Chapelizod Bypass"}, {"lat": 53.3461643943043, "long": -6.29271836681323, "id": 4413, "name": "Heuston Station"}, {"lat": 53.3470736855785, "long": -6.28467627539544, "id": 1476, "name": "Sarsfield Quay"}, {"lat": 53.3463358924194, "long": -6.27838250402172, "id": 7453, "name": "Arran Quay"}, {"lat": 53.3456460888719, "long": -6.27294312668559, "id": 1478, "name": "Four Courts"}, {"lat": 53.3459159600301, "long": -6.26923734421882, "id": 1479, "name": "Ormond Quay Upper"}, {"lat": 53.3470973047636, "long": -6.2614690836473, "id": 315, "name": "Bachelors Walk"}, {"lat": 53.3464120071589, "long": -6.25700598616108, "id": 4495, "name": "Hawkins Street"}, {"lat": 53.3430357114115, "long": -6.24985957693027, "id": 2809, "name": "Pearse Station"}, {"lat": 53.3407949111292, "long": -6.25089748919423, "id": 2810, "name": "Merrion Sq West"}, {"lat": 53.3376207009532, "long": -6.25080214718473, "id": 749, "name": "Baggot St Lower"}, {"lat": 53.3365710800776, "long": -6.24848750327109, "id": 750, "name": "Fitzwilliam Street"}, {"lat": 53.3353205479273, "long": -6.24657163552751, "id": 751, "name": "Herbert Street"}, {"lat": 53.3336716542353, "long": -6.24446202003109, "id": 752, "name": "Baggot St Upper"}, {"lat": 53.3324533902718, "long": -6.24352105457139, "id": 753, "name": "Waterloo Road"}, {"lat": 53.330783782374, "long": -6.24428032727376, "id": 754, "name": "Burlington Road"}, {"lat": 53.3288280456981, "long": -6.24514136798765, "id": 755, "name": "Wellington Lane"}, {"lat": 53.3263997617809, "long": -6.24259874670305, "id": 756, "name": "Royal Hospital"}, {"lat": 53.324081337159, "long": -6.23958650985933, "id": 757, "name": "Donnybrook Village"}, {"lat": 53.3226869429553, "long": -6.2376773804315, "id": 758, "name": "Victoria Avenue"}, {"lat": 53.3203488508448, "long": -6.23334551683728, "id": 759, "name": "Donnybrook Stadium"}, {"lat": 53.318330187289, "long": -6.23056195593035, "id": 760, "name": "Donnybrook Church"}, {"lat": 53.3161004007996, "long": -6.22748721370695, "id": 761, "name": "Teresian School"}, {"lat": 53.3145170648506, "long": -6.22437094406488, "id": 762, "name": "RTE"}, {"lat": 53.3123201447844, "long": -6.2211003190802, "id": 763, "name": "Belfield Court"}, {"lat": 53.3048966218259, "long": -6.21693731714651, "id": 4952, "name": "UCD"}], "66X_104": [{"lat": 53.364685361356, "long": -6.51705421045058, "id": 6164, "name": "Gleneaston Centre"}, {"lat": 53.3649122273901, "long": -6.50929292388115, "id": 6159, "name": "Easton Road"}, {"lat": 53.3652342800236, "long": -6.50773399127603, "id": 6160, "name": "Accommodation Road"}, {"lat": 53.3664311267237, "long": -6.50139604276338, "id": 6161, "name": "Scoil Bhride"}, {"lat": 53.3657541119138, "long": -6.49259936013715, "id": 3991, "name": "Our Lady's Nativity"}, {"lat": 53.3644923764526, "long": -6.4873547931945, "id": 3998, "name": "Leixlip"}, {"lat": 53.3618367662143, "long": -6.48348227444092, "id": 3999, "name": "Cooldrinagh Terrace"}, {"lat": 53.3605396571647, "long": -6.47831483261286, "id": 4000, "name": "Springfield Hotel"}, {"lat": 53.3589228488587, "long": -6.47206238135664, "id": 4001, "name": "Liffey Valley Golf"}, {"lat": 53.3539420024164, "long": -6.45866046849816, "id": 7193, "name": "Tandy's Lane"}, {"lat": 53.3513053901371, "long": -6.44939732270116, "id": 7049, "name": "Vesey Park"}, {"lat": 53.359144983556, "long": -6.41467742104277, "id": 2236, "name": "Ballyowen Lane"}, {"lat": 53.3561684706184, "long": -6.39172740046691, "id": 2239, "name": "Liffey Valley SC"}, {"lat": 53.3549292563171, "long": -6.37126802262205, "id": 2241, "name": "Kennelsfort Road"}, {"lat": 53.3539273217415, "long": -6.36700981772815, "id": 2242, "name": "The Oval"}, {"lat": 53.3431789302767, "long": -6.31538083570425, "id": 7435, "name": "Memorial Gardens"}, {"lat": 53.3434371042603, "long": -6.31139066326813, "id": 2722, "name": "Chapelizod Bypass"}, {"lat": 53.3461643943043, "long": -6.29271836681323, "id": 4413, "name": "Heuston Station"}, {"lat": 53.3470736855785, "long": -6.28467627539544, "id": 1476, "name": "Sarsfield Quay"}, {"lat": 53.3463358924194, "long": -6.27838250402172, "id": 7453, "name": "Arran Quay"}, {"lat": 53.3456460888719, "long": -6.27294312668559, "id": 1478, "name": "Four Courts"}, {"lat": 53.3459159600301, "long": -6.26923734421882, "id": 1479, "name": "Ormond Quay Upper"}, {"lat": 53.3470973047636, "long": -6.2614690836473, "id": 315, "name": "Bachelors Walk"}, {"lat": 53.3464120071589, "long": -6.25700598616108, "id": 4495, "name": "Hawkins Street"}, {"lat": 53.3430357114115, "long": -6.24985957693027, "id": 2809, "name": "Pearse Station"}, {"lat": 53.3407949111292, "long": -6.25089748919423, "id": 2810, "name": "Merrion Sq West"}, {"lat": 53.3376207009532, "long": -6.25080214718473, "id": 749, "name": "Baggot St Lower"}, {"lat": 53.3365710800776, "long": -6.24848750327109, "id": 750, "name": "Fitzwilliam Street"}, {"lat": 53.3353205479273, "long": -6.24657163552751, "id": 751, "name": "Herbert Street"}, {"lat": 53.3336716542353, "long": -6.24446202003109, "id": 752, "name": "Baggot St Upper"}, {"lat": 53.3324533902718, "long": -6.24352105457139, "id": 753, "name": "Waterloo Road"}, {"lat": 53.330783782374, "long": -6.24428032727376, "id": 754, "name": "Burlington Road"}, {"lat": 53.3288280456981, "long": -6.24514136798765, "id": 755, "name": "Wellington Lane"}, {"lat": 53.3263997617809, "long": -6.24259874670305, "id": 756, "name": "Royal Hospital"}, {"lat": 53.324081337159, "long": -6.23958650985933, "id": 757, "name": "Donnybrook Village"}, {"lat": 53.3226869429553, "long": -6.2376773804315, "id": 758, "name": "Victoria Avenue"}, {"lat": 53.3203488508448, "long": -6.23334551683728, "id": 759, "name": "Donnybrook Stadium"}, {"lat": 53.318330187289, "long": -6.23056195593035, "id": 760, "name": "Donnybrook Church"}, {"lat": 53.3161004007996, "long": -6.22748721370695, "id": 761, "name": "Teresian School"}, {"lat": 53.3145170648506, "long": -6.22437094406488, "id": 762, "name": "RTE"}, {"lat": 53.3123201447844, "long": -6.2211003190802, "id": 763, "name": "Belfield Court"}, {"lat": 53.3048966218259, "long": -6.21693731714651, "id": 4952, "name": "UCD"}], "66X_103": [{"lat": 53.3729384386305, "long": -6.5891609143013, "id": 3980, "name": "Kingsbry"}, {"lat": 53.3765331890879, "long": -6.58761424896909, "id": 6089, "name": "Old Greenfield Rd"}, {"lat": 53.3819989745355, "long": -6.59000379690051, "id": 3981, "name": "Maynooth"}, {"lat": 53.3821078907791, "long": -6.58553572475072, "id": 3982, "name": "Maynooth SC"}, {"lat": 53.3780202649437, "long": -6.55269430118181, "id": 3983, "name": "Carton House"}, {"lat": 53.3741141671536, "long": -6.52654072611888, "id": 3985, "name": "Intel Extrance 2"}, {"lat": 53.3737778332109, "long": -6.52477890467049, "id": 3986, "name": "Intel Entrance 1"}, {"lat": 53.3654580047787, "long": -6.52282747446692, "id": 7313, "name": "Beechpark Estate"}, {"lat": 53.364685361356, "long": -6.51705421045058, "id": 6164, "name": "Gleneaston Centre"}, {"lat": 53.3649122273901, "long": -6.50929292388115, "id": 6159, "name": "Easton Road"}, {"lat": 53.3652342800236, "long": -6.50773399127603, "id": 6160, "name": "Accommodation Road"}, {"lat": 53.3664311267237, "long": -6.50139604276338, "id": 6161, "name": "Scoil Bhride"}, {"lat": 53.3657541119138, "long": -6.49259936013715, "id": 3991, "name": "Our Lady's Nativity"}, {"lat": 53.3644923764526, "long": -6.4873547931945, "id": 3998, "name": "Leixlip"}, {"lat": 53.3618367662143, "long": -6.48348227444092, "id": 3999, "name": "Cooldrinagh Terrace"}, {"lat": 53.3605396571647, "long": -6.47831483261286, "id": 4000, "name": "Springfield Hotel"}, {"lat": 53.3589228488587, "long": -6.47206238135664, "id": 4001, "name": "Liffey Valley Golf"}, {"lat": 53.3539420024164, "long": -6.45866046849816, "id": 7193, "name": "Tandy's Lane"}, {"lat": 53.3513053901371, "long": -6.44939732270116, "id": 7049, "name": "Vesey Park"}, {"lat": 53.359144983556, "long": -6.41467742104277, "id": 2236, "name": "Ballyowen Lane"}, {"lat": 53.3561684706184, "long": -6.39172740046691, "id": 2239, "name": "Liffey Valley SC"}, {"lat": 53.3549292563171, "long": -6.37126802262205, "id": 2241, "name": "Kennelsfort Road"}, {"lat": 53.3539273217415, "long": -6.36700981772815, "id": 2242, "name": "The Oval"}, {"lat": 53.3431789302767, "long": -6.31538083570425, "id": 7435, "name": "Memorial Gardens"}, {"lat": 53.3434371042603, "long": -6.31139066326813, "id": 2722, "name": "Chapelizod Bypass"}, {"lat": 53.3461643943043, "long": -6.29271836681323, "id": 4413, "name": "Heuston Station"}, {"lat": 53.3470736855785, "long": -6.28467627539544, "id": 1476, "name": "Sarsfield Quay"}, {"lat": 53.3463358924194, "long": -6.27838250402172, "id": 7453, "name": "Arran Quay"}, {"lat": 53.3456460888719, "long": -6.27294312668559, "id": 1478, "name": "Four Courts"}, {"lat": 53.3459159600301, "long": -6.26923734421882, "id": 1479, "name": "Ormond Quay Upper"}, {"lat": 53.3470973047636, "long": -6.2614690836473, "id": 315, "name": "Bachelors Walk"}, {"lat": 53.3464120071589, "long": -6.25700598616108, "id": 4495, "name": "Hawkins Street"}, {"lat": 53.3430357114115, "long": -6.24985957693027, "id": 2809, "name": "Pearse Station"}, {"lat": 53.3407949111292, "long": -6.25089748919423, "id": 2810, "name": "Merrion Sq West"}, {"lat": 53.3376207009532, "long": -6.25080214718473, "id": 749, "name": "Baggot St Lower"}, {"lat": 53.3365710800776, "long": -6.24848750327109, "id": 750, "name": "Fitzwilliam Street"}, {"lat": 53.3353205479273, "long": -6.24657163552751, "id": 751, "name": "Herbert Street"}, {"lat": 53.3336716542353, "long": -6.24446202003109, "id": 752, "name": "Baggot St Upper"}, {"lat": 53.3324533902718, "long": -6.24352105457139, "id": 753, "name": "Waterloo Road"}, {"lat": 53.330783782374, "long": -6.24428032727376, "id": 754, "name": "Burlington Road"}, {"lat": 53.3288280456981, "long": -6.24514136798765, "id": 755, "name": "Wellington Lane"}, {"lat": 53.3263997617809, "long": -6.24259874670305, "id": 756, "name": "Royal Hospital"}, {"lat": 53.324081337159, "long": -6.23958650985933, "id": 757, "name": "Donnybrook Village"}, {"lat": 53.3226869429553, "long": -6.2376773804315, "id": 758, "name": "Victoria Avenue"}, {"lat": 53.3203488508448, "long": -6.23334551683728, "id": 759, "name": "Donnybrook Stadium"}, {"lat": 53.318330187289, "long": -6.23056195593035, "id": 760, "name": "Donnybrook Church"}, {"lat": 53.3161004007996, "long": -6.22748721370695, "id": 761, "name": "Teresian School"}, {"lat": 53.3145170648506, "long": -6.22437094406488, "id": 762, "name": "RTE"}, {"lat": 53.3123201447844, "long": -6.2211003190802, "id": 763, "name": "Belfield Court"}, {"lat": 53.3048966218259, "long": -6.21693731714651, "id": 4952, "name": "UCD"}], "66X_105": [{"lat": 53.3544467335227, "long": -6.50827613102709, "id": 4003, "name": "Hewlett Packard"}, {"lat": 53.3624098156569, "long": -6.5003802360209, "id": 4404, "name": "Castletown"}, {"lat": 53.3642504993147, "long": -6.49666432714375, "id": 4405, "name": "Highfield Park"}, {"lat": 53.3657541119138, "long": -6.49259936013715, "id": 3991, "name": "Our Lady's Nativity"}, {"lat": 53.3644923764526, "long": -6.4873547931945, "id": 3998, "name": "Leixlip"}, {"lat": 53.3618367662143, "long": -6.48348227444092, "id": 3999, "name": "Cooldrinagh Terrace"}, {"lat": 53.3605396571647, "long": -6.47831483261286, "id": 4000, "name": "Springfield Hotel"}, {"lat": 53.3589228488587, "long": -6.47206238135664, "id": 4001, "name": "Liffey Valley Golf"}, {"lat": 53.3539420024164, "long": -6.45866046849816, "id": 7193, "name": "Tandy's Lane"}, {"lat": 53.3513053901371, "long": -6.44939732270116, "id": 7049, "name": "Vesey Park"}, {"lat": 53.359144983556, "long": -6.41467742104277, "id": 2236, "name": "Ballyowen Lane"}, {"lat": 53.3561684706184, "long": -6.39172740046691, "id": 2239, "name": "Liffey Valley SC"}, {"lat": 53.3549292563171, "long": -6.37126802262205, "id": 2241, "name": "Kennelsfort Road"}, {"lat": 53.3539273217415, "long": -6.36700981772815, "id": 2242, "name": "The Oval"}, {"lat": 53.3431789302767, "long": -6.31538083570425, "id": 7435, "name": "Memorial Gardens"}, {"lat": 53.3434371042603, "long": -6.31139066326813, "id": 2722, "name": "Chapelizod Bypass"}, {"lat": 53.3461643943043, "long": -6.29271836681323, "id": 4413, "name": "Heuston Station"}, {"lat": 53.3470736855785, "long": -6.28467627539544, "id": 1476, "name": "Sarsfield Quay"}, {"lat": 53.3463358924194, "long": -6.27838250402172, "id": 7453, "name": "Arran Quay"}, {"lat": 53.3456460888719, "long": -6.27294312668559, "id": 1478, "name": "Four Courts"}, {"lat": 53.3459159600301, "long": -6.26923734421882, "id": 1479, "name": "Ormond Quay Upper"}, {"lat": 53.3470973047636, "long": -6.2614690836473, "id": 315, "name": "Bachelors Walk"}, {"lat": 53.3464120071589, "long": -6.25700598616108, "id": 4495, "name": "Hawkins Street"}, {"lat": 53.3430357114115, "long": -6.24985957693027, "id": 2809, "name": "Pearse Station"}, {"lat": 53.3407949111292, "long": -6.25089748919423, "id": 2810, "name": "Merrion Sq West"}, {"lat": 53.3376207009532, "long": -6.25080214718473, "id": 749, "name": "Baggot St Lower"}, {"lat": 53.3365710800776, "long": -6.24848750327109, "id": 750, "name": "Fitzwilliam Street"}, {"lat": 53.3353205479273, "long": -6.24657163552751, "id": 751, "name": "Herbert Street"}, {"lat": 53.3336716542353, "long": -6.24446202003109, "id": 752, "name": "Baggot St Upper"}, {"lat": 53.3324533902718, "long": -6.24352105457139, "id": 753, "name": "Waterloo Road"}, {"lat": 53.330783782374, "long": -6.24428032727376, "id": 754, "name": "Burlington Road"}, {"lat": 53.3288280456981, "long": -6.24514136798765, "id": 755, "name": "Wellington Lane"}, {"lat": 53.3263997617809, "long": -6.24259874670305, "id": 756, "name": "Royal Hospital"}, {"lat": 53.324081337159, "long": -6.23958650985933, "id": 757, "name": "Donnybrook Village"}, {"lat": 53.3226869429553, "long": -6.2376773804315, "id": 758, "name": "Victoria Avenue"}, {"lat": 53.3203488508448, "long": -6.23334551683728, "id": 759, "name": "Donnybrook Stadium"}, {"lat": 53.318330187289, "long": -6.23056195593035, "id": 760, "name": "Donnybrook Church"}, {"lat": 53.3161004007996, "long": -6.22748721370695, "id": 761, "name": "Teresian School"}, {"lat": 53.3145170648506, "long": -6.22437094406488, "id": 762, "name": "RTE"}, {"lat": 53.3123201447844, "long": -6.2211003190802, "id": 763, "name": "Belfield Court"}, {"lat": 53.3048966218259, "long": -6.21693731714651, "id": 4952, "name": "UCD"}], "66X_106": [{"lat": 53.3724364586374, "long": -6.49294951412487, "id": 3994, "name": "River Forest"}, {"lat": 53.372054107808, "long": -6.48901050639784, "id": 3995, "name": "River Forest"}, {"lat": 53.3711667701943, "long": -6.48636688848522, "id": 3996, "name": "Captain's Hill"}, {"lat": 53.3644923764526, "long": -6.4873547931945, "id": 3998, "name": "Leixlip"}, {"lat": 53.3618367662143, "long": -6.48348227444092, "id": 3999, "name": "Cooldrinagh Terrace"}, {"lat": 53.3605396571647, "long": -6.47831483261286, "id": 4000, "name": "Springfield Hotel"}, {"lat": 53.3589228488587, "long": -6.47206238135664, "id": 4001, "name": "Liffey Valley Golf"}, {"lat": 53.3539420024164, "long": -6.45866046849816, "id": 7193, "name": "Tandy's Lane"}, {"lat": 53.3513053901371, "long": -6.44939732270116, "id": 7049, "name": "Vesey Park"}, {"lat": 53.359144983556, "long": -6.41467742104277, "id": 2236, "name": "Ballyowen Lane"}, {"lat": 53.3561684706184, "long": -6.39172740046691, "id": 2239, "name": "Liffey Valley SC"}, {"lat": 53.3549292563171, "long": -6.37126802262205, "id": 2241, "name": "Kennelsfort Road"}, {"lat": 53.3539273217415, "long": -6.36700981772815, "id": 2242, "name": "The Oval"}, {"lat": 53.3431789302767, "long": -6.31538083570425, "id": 7435, "name": "Memorial Gardens"}, {"lat": 53.3434371042603, "long": -6.31139066326813, "id": 2722, "name": "Chapelizod Bypass"}, {"lat": 53.3461643943043, "long": -6.29271836681323, "id": 4413, "name": "Heuston Station"}, {"lat": 53.3470736855785, "long": -6.28467627539544, "id": 1476, "name": "Sarsfield Quay"}, {"lat": 53.3463358924194, "long": -6.27838250402172, "id": 7453, "name": "Arran Quay"}, {"lat": 53.3456460888719, "long": -6.27294312668559, "id": 1478, "name": "Four Courts"}, {"lat": 53.3459159600301, "long": -6.26923734421882, "id": 1479, "name": "Ormond Quay Upper"}, {"lat": 53.3470973047636, "long": -6.2614690836473, "id": 315, "name": "Bachelors Walk"}, {"lat": 53.3464120071589, "long": -6.25700598616108, "id": 4495, "name": "Hawkins Street"}, {"lat": 53.3430357114115, "long": -6.24985957693027, "id": 2809, "name": "Pearse Station"}, {"lat": 53.3407949111292, "long": -6.25089748919423, "id": 2810, "name": "Merrion Sq West"}, {"lat": 53.3376207009532, "long": -6.25080214718473, "id": 749, "name": "Baggot St Lower"}, {"lat": 53.3365710800776, "long": -6.24848750327109, "id": 750, "name": "Fitzwilliam Street"}, {"lat": 53.3353205479273, "long": -6.24657163552751, "id": 751, "name": "Herbert Street"}, {"lat": 53.3336716542353, "long": -6.24446202003109, "id": 752, "name": "Baggot St Upper"}, {"lat": 53.3324533902718, "long": -6.24352105457139, "id": 753, "name": "Waterloo Road"}, {"lat": 53.330783782374, "long": -6.24428032727376, "id": 754, "name": "Burlington Road"}, {"lat": 53.3288280456981, "long": -6.24514136798765, "id": 755, "name": "Wellington Lane"}, {"lat": 53.3263997617809, "long": -6.24259874670305, "id": 756, "name": "Royal Hospital"}, {"lat": 53.324081337159, "long": -6.23958650985933, "id": 757, "name": "Donnybrook Village"}, {"lat": 53.3226869429553, "long": -6.2376773804315, "id": 758, "name": "Victoria Avenue"}, {"lat": 53.3203488508448, "long": -6.23334551683728, "id": 759, "name": "Donnybrook Stadium"}, {"lat": 53.318330187289, "long": -6.23056195593035, "id": 760, "name": "Donnybrook Church"}, {"lat": 53.3161004007996, "long": -6.22748721370695, "id": 761, "name": "Teresian School"}, {"lat": 53.3145170648506, "long": -6.22437094406488, "id": 762, "name": "RTE"}, {"lat": 53.3123201447844, "long": -6.2211003190802, "id": 763, "name": "Belfield Court"}, {"lat": 53.3048966218259, "long": -6.21693731714651, "id": 4952, "name": "UCD"}]}