{"67_6": [{"lat": 53.3795389497477, "long": -6.58870222379746, "id": 3917, "name": "Maynooth Station"}, {"lat": 53.3764500204745, "long": -6.58742161236595, "id": 3918, "name": "Straffan Road"}, {"lat": 53.3741381621843, "long": -6.58649117055141, "id": 3926, "name": "Railpark Estate"}, {"lat": 53.3697273822172, "long": -6.57985979030283, "id": 7074, "name": "Griffin Rath Manor"}, {"lat": 53.3666482333055, "long": -6.56588239629019, "id": 3919, "name": "Obelisk Lane"}, {"lat": 53.3619935728876, "long": -6.55627255614055, "id": 3920, "name": "M4 Interchange Park"}, {"lat": 53.3590111503714, "long": -6.55120517973571, "id": 3921, "name": "Salesian College"}, {"lat": 53.3553810963101, "long": -6.54685158556481, "id": 3922, "name": "Crodaun Forest Park"}, {"lat": 53.3520790226322, "long": -6.54655833448169, "id": 3923, "name": "Thornhill"}, {"lat": 53.3505108957731, "long": -6.54473407793288, "id": 3112, "name": "Hawthorn View"}, {"lat": 53.3460711525574, "long": -6.54180633712301, "id": 3924, "name": "Beatty Park"}, {"lat": 53.3427303488403, "long": -6.53981779941059, "id": 3927, "name": "Chestnut Grove"}, {"lat": 53.3406811855871, "long": -6.53762018465274, "id": 3928, "name": "Castletown"}, {"lat": 53.3389827093254, "long": -6.5391048979485, "id": 3929, "name": "Celbridge Main St"}, {"lat": 53.3380224712027, "long": -6.53775620336141, "id": 7108, "name": "Riverview"}, {"lat": 53.3397467883646, "long": -6.5296029957148, "id": 3935, "name": "Donacomper House"}, {"lat": 53.3420206113831, "long": -6.51869684707414, "id": 3936, "name": "Ballyoulster"}, {"lat": 53.3427911222674, "long": -6.51488555317474, "id": 7110, "name": "The Orchard"}, {"lat": 53.3433430966772, "long": -6.51229822444245, "id": 3938, "name": "Celbridge Park"}, {"lat": 53.3446150918769, "long": -6.50620134209763, "id": 3939, "name": "Coneyburrow"}, {"lat": 53.3455462809641, "long": -6.50161797378459, "id": 3940, "name": "Backweston"}, {"lat": 53.346046516932, "long": -6.49922737092354, "id": 3941, "name": "Backweston Park"}, {"lat": 53.3470719009195, "long": -6.4942949193612, "id": 3943, "name": "Dept of Agriculture"}, {"lat": 53.3489964092459, "long": -6.48940553777836, "id": 3944, "name": "R403"}, {"lat": 53.353701713246, "long": -6.47986535837243, "id": 3945, "name": "Cooldrinagh Lane"}, {"lat": 53.3561153446028, "long": -6.4753176391996, "id": 3946, "name": "Weston Estate"}, {"lat": 53.3589228488587, "long": -6.47206238135664, "id": 4001, "name": "Liffey Valley Golf"}, {"lat": 53.355516918551, "long": -6.46021107416004, "id": 3949, "name": "Leixlip Road"}, {"lat": 53.3556024866233, "long": -6.45501009445385, "id": 3950, "name": "Leixlip Road"}, {"lat": 53.3565643295817, "long": -6.44809469057742, "id": 3372, "name": "Lucan Village"}, {"lat": 53.358082789257, "long": -6.44184974350996, "id": 3373, "name": "Lucan Heights"}, {"lat": 53.3596342689194, "long": -6.43952447262476, "id": 3374, "name": "St Mary's Church"}, {"lat": 53.36008950087, "long": -6.43516577563154, "id": 2233, "name": "Chalet Gardens"}, {"lat": 53.3597376346389, "long": -6.43095683406749, "id": 2232, "name": "Ballydowd Grove"}, {"lat": 53.3593365474227, "long": -6.4243909736557, "id": 2234, "name": "Lucan Retail Park"}, {"lat": 53.3590361767517, "long": -6.4207061273931, "id": 2235, "name": "Hermitage Golf Club"}, {"lat": 53.359144983556, "long": -6.41467742104277, "id": 2236, "name": "Ballyowen Lane"}, null, {"lat": 53.3577604434171, "long": -6.40520380497261, "id": 2238, "name": "Hermitage Clinic"}, {"lat": 53.3575214900468, "long": -6.40279392760982, "id": 5056, "name": "Hermitage Clinic"}, {"lat": 53.3561684706184, "long": -6.39172740046691, "id": 2239, "name": "Liffey Valley SC"}, {"lat": 53.3549292563171, "long": -6.37126802262205, "id": 2241, "name": "Kennelsfort Road"}, {"lat": 53.3539273217415, "long": -6.36700981772815, "id": 2242, "name": "The Oval"}, {"lat": 53.3519743826832, "long": -6.35569799515705, "id": 2243, "name": "Glenaulin"}, {"lat": 53.3508843467075, "long": -6.35160907436144, "id": 2244, "name": "Belgrove Park"}, {"lat": 53.3494632047062, "long": -6.34828421128995, "id": 2245, "name": "Laurence Brook"}, {"lat": 53.3483113088409, "long": -6.3436423537079, "id": 2246, "name": "Chapelizod"}, {"lat": 53.3467528589784, "long": -6.33628291602206, "id": 2247, "name": "St Mary's Hospital"}, {"lat": 53.3463209318674, "long": -6.32788863731599, "id": 2248, "name": "Military Road"}, {"lat": 53.3465317047291, "long": -6.32113644944895, "id": 2249, "name": "Garda Rowing Club"}, {"lat": 53.3474385870532, "long": -6.31533304000409, "id": 2250, "name": "Salmon Pool"}, {"lat": 53.3481320367119, "long": -6.3109797923089, "id": 2251, "name": "Islandbridge Gate"}, {"lat": 53.3484294679803, "long": -6.30596616966109, "id": 1472, "name": "Conyngham Road"}, {"lat": 53.3483333612545, "long": -6.3011033098756, "id": 4408, "name": "Phoenix House"}, {"lat": 53.348305978475, "long": -6.29855089897711, "id": 1473, "name": "Phoenix Park Gate"}, {"lat": 53.3479479159606, "long": -6.29236170464089, "id": 1474, "name": "Parkgate Street"}, {"lat": 53.3470736855785, "long": -6.28467627539544, "id": 1476, "name": "Sarsfield Quay"}, {"lat": 53.3463358924194, "long": -6.27838250402172, "id": 7453, "name": "Arran Quay"}, {"lat": 53.3456460888719, "long": -6.27294312668559, "id": 1478, "name": "Four Courts"}, {"lat": 53.3459159600301, "long": -6.26923734421882, "id": 1479, "name": "Ormond Quay Upper"}, {"lat": 53.3470973047636, "long": -6.2614690836473, "id": 315, "name": "Bachelors Walk"}, null, {"lat": 53.3426061451661, "long": -6.25612494578256, "id": 406, "name": "Nassau Street"}, {"lat": 53.3407949111292, "long": -6.25089748919423, "id": 2810, "name": "Merrion Sq West"}, {"lat": 53.3392984939644, "long": -6.25059831596535, "id": 7385, "name": "Merrion Sq South"}], "67_4": [{"lat": 53.3390907478423, "long": -6.24991601709792, "id": 7391, "name": "Merrion Sq South"}, {"lat": 53.3398534163799, "long": -6.24737682273893, "id": 493, "name": "Holles Street"}, {"lat": 53.341435583359, "long": -6.25168225233912, "id": 494, "name": "Clare Street"}, {"lat": 53.3435913198155, "long": -6.24974670516899, "id": 495, "name": "Pearse Station"}, {"lat": 53.344846483913, "long": -6.25320984701663, "id": 400, "name": "Shaw Street"}, {"lat": 53.3455443981674, "long": -6.2566809076365, "id": 346, "name": "Pearse St Garda Stn"}, {"lat": 53.3465259444521, "long": -6.25926936624477, "id": 317, "name": "Westmoreland Street"}, {"lat": 53.3454764728287, "long": -6.26620615548425, "id": 312, "name": "Wellington Quay"}, {"lat": 53.3450180037747, "long": -6.27426019093106, "id": 1444, "name": "Merchant's Quay"}, {"lat": 53.3456784102547, "long": -6.27828883961715, "id": 1445, "name": "Usher's Quay"}, {"lat": 53.3479103052504, "long": -6.29287390375086, "id": 7078, "name": "Park Gate Street"}, {"lat": 53.348152829997, "long": -6.29789609467717, "id": 1449, "name": "Phoenix Park Gate"}, {"lat": 53.3481554042365, "long": -6.30186141311765, "id": 1450, "name": "Conyngham Road"}, {"lat": 53.3482782789373, "long": -6.30544644496584, "id": 1451, "name": "Bridgewater House"}, {"lat": 53.3480255718797, "long": -6.31044326467111, "id": 2191, "name": "Islandbridge Gate"}, {"lat": 53.347245622938, "long": -6.31567109288465, "id": 2192, "name": "UCD Boat Club"}, {"lat": 53.3463845503896, "long": -6.32345529052173, "id": 2193, "name": "Garda Rowing Club"}, {"lat": 53.3461933372483, "long": -6.32840430346689, "id": 2194, "name": "Military Road"}, {"lat": 53.3467441138071, "long": -6.33758999273194, "id": 2195, "name": "St Mary's Hospital"}, {"lat": 53.3478346251228, "long": -6.3416781514667, "id": 2196, "name": "Chapelizod"}, {"lat": 53.3481655534118, "long": -6.34674221487066, "id": 2197, "name": "Lucan Road"}, {"lat": 53.350625141797, "long": -6.35106328860521, "id": 2198, "name": "Belgrove Park"}, {"lat": 53.3502827503688, "long": -6.35295415067495, "id": 2200, "name": "Kylemore Road"}, {"lat": 53.3532737532198, "long": -6.36457116457726, "id": 2201, "name": "Palmerstown Drive"}, {"lat": 53.3540614069964, "long": -6.36892756671869, "id": 7239, "name": "The Oval"}, {"lat": 53.3547555333603, "long": -6.37171030536814, "id": 4401, "name": "Kennelsfort"}, {"lat": 53.3557135565417, "long": -6.39198489791745, "id": 2213, "name": "Liffey Valley SC"}, {"lat": 53.3560900353088, "long": -6.39993297587383, "id": 2214, "name": "Clarion Hotel"}, {"lat": 53.3582062275912, "long": -6.40897316569564, "id": 2215, "name": "St Loman's Hospital"}, {"lat": 53.3588652801417, "long": -6.41594982438278, "id": 2216, "name": "Ballyowen Lane"}, {"lat": 53.3577587404075, "long": -6.4233374329506, "id": 4599, "name": "Hermitage Valley"}, {"lat": 53.3595962005444, "long": -6.42704069295346, "id": 2217, "name": "Esker Lane"}, {"lat": 53.3596765183869, "long": -6.43246150995514, "id": 2218, "name": "Roselawn"}, {"lat": 53.360055675731, "long": -6.43669950683551, "id": 2219, "name": "Scoil Mhuire NS"}, {"lat": 53.3596568989775, "long": -6.43919311152569, "id": 3365, "name": "St Mary's Church"}, {"lat": 53.3581757255188, "long": -6.44139564019122, "id": 3366, "name": "Lucan Heights"}, {"lat": 53.3564291825229, "long": -6.44876061874789, "id": 3367, "name": "Lucan Village"}, {"lat": 53.3556904165022, "long": -6.454165633982, "id": 3886, "name": "Primrose Lane"}, {"lat": 53.3552287991644, "long": -6.45877928323059, "id": 3887, "name": "Ardeevin Avenue"}, {"lat": 53.3551537748953, "long": -6.46271792558204, "id": 3888, "name": "Old Cornmill Road"}, {"lat": 53.3567240019032, "long": -6.4653054924118, "id": 7186, "name": "Lucan Spa Hotel"}, {"lat": 53.3575628311409, "long": -6.46763403856295, "id": 7187, "name": "Kew Park"}, {"lat": 53.3581648569871, "long": -6.473231299623, "id": 3947, "name": "N4 Slip Rd Celbridge"}, {"lat": 53.356140185202, "long": -6.47515149978079, "id": 3892, "name": "Weston Estate"}, {"lat": 53.3530841328441, "long": -6.4807736272119, "id": 3893, "name": "Cooldrinagh Lane"}, {"lat": 53.3484949736266, "long": -6.49026440129251, "id": 3895, "name": "R403"}, {"lat": 53.3468877869546, "long": -6.49466187992488, "id": 3896, "name": "Dept of Agriculture"}, {"lat": 53.3458732591222, "long": -6.49974411299941, "id": 3897, "name": "Backweston Park"}, {"lat": 53.3453192980094, "long": -6.50215160235314, "id": 3898, "name": "Backweston"}, {"lat": 53.3440310451098, "long": -6.5083694261489, "id": 3899, "name": "Coneyburrow"}, {"lat": 53.3433973717911, "long": -6.51160548768053, "id": 3900, "name": "Celbridge Park"}, {"lat": 53.3424463342548, "long": -6.5160689454596, "id": 3901, "name": "The Orchard"}, {"lat": 53.3418450324804, "long": -6.51903332600238, "id": 3902, "name": "Ballyoulster Park"}, {"lat": 53.3399279639071, "long": -6.52826023469713, "id": 3904, "name": "Donacomper House"}, {"lat": 53.3378803826176, "long": -6.53789621229172, "id": 3905, "name": "Riverview"}, {"lat": 53.3391541407594, "long": -6.53915910565243, "id": 3906, "name": "Celbridge Main St"}, {"lat": 53.34084308167, "long": -6.5376296622969, "id": 3907, "name": "Castletown"}, {"lat": 53.3430097870887, "long": -6.54061923534175, "id": 3908, "name": "Maynooth Road"}, {"lat": 53.3467827242979, "long": -6.54193224831772, "id": 3909, "name": "Beatty Park"}, {"lat": 53.3505136422736, "long": -6.54495929721823, "id": 5118, "name": "Hawthorn View"}, {"lat": 53.3522627262216, "long": -6.54688255655727, "id": 3910, "name": "Thornhill"}, {"lat": 53.3542700030897, "long": -6.5471297389309, "id": 3911, "name": "Crodaun Forest Park"}, {"lat": 53.3590800541389, "long": -6.55169862959239, "id": 3912, "name": "Salesian College"}, {"lat": 53.3621068313084, "long": -6.55671947446947, "id": 3913, "name": "M4 Interchange Park"}, {"lat": 53.3670128654225, "long": -6.5670572517188, "id": 3914, "name": "Obelisk Lane"}, {"lat": 53.3696418301181, "long": -6.58022329665818, "id": 7075, "name": "Griffin Rath Manor"}, {"lat": 53.3725792635943, "long": -6.58463416546998, "id": 3925, "name": "Rockfield Manor"}, {"lat": 53.3740033999721, "long": -6.5864956331453, "id": 3008, "name": "Railpark Estate"}, {"lat": 53.3765331890879, "long": -6.58761424896909, "id": 6089, "name": "Old Greenfield Rd"}]}