{"68A_86": [{"lat": 53.3464120071589, "long": -6.25700598616108, "id": 4495, "name": "Hawkins Street"}, {"lat": 53.3442366224365, "long": -6.26130011810001, "id": 1278, "name": "College Green"}, {"lat": 53.3423417958814, "long": -6.26450108272727, "id": 1282, "name": "S Great George's St"}, {"lat": 53.3399144044976, "long": -6.26569595730069, "id": 4456, "name": "Whitefriars St"}, {"lat": 53.3381283509689, "long": -6.26587355723321, "id": 1284, "name": "Redmond's Hill"}, {"lat": 53.3343784055905, "long": -6.26512475425716, "id": 1285, "name": "Camden Street Lower"}, {"lat": 53.3324996495011, "long": -6.26572653484075, "id": 1286, "name": "Harrington Street"}, {"lat": 53.3323227536349, "long": -6.2696376223493, "id": 1288, "name": "Victoria Street"}, {"lat": 53.3321293613202, "long": -6.27303883277022, "id": 1289, "name": "Longwood Avenue"}, {"lat": 53.3319833877872, "long": -6.27661827752548, "id": 1360, "name": "Raymond Street"}, {"lat": 53.3312039603929, "long": -6.2799078735222, "id": 1362, "name": "National Stadium"}, {"lat": 53.3318459312232, "long": -6.2851672650217, "id": 1363, "name": "St Anne's Road S"}, {"lat": 53.3323458739442, "long": -6.28806012034702, "id": 1364, "name": "Dolphin Avenue"}, {"lat": 53.3329015319263, "long": -6.29045531304387, "id": 1365, "name": "Dolphins Barn Church"}, {"lat": 53.3351498676865, "long": -6.29431459059535, "id": 1366, "name": "St Andrews Centre"}, {"lat": 53.3356852929589, "long": -6.29656066348709, "id": 1367, "name": "Rialto Church"}, {"lat": 53.3388672150275, "long": -6.30224552041048, "id": 1369, "name": "Mayfield Road"}, {"lat": 53.3391885808018, "long": -6.3052512455659, "id": 1370, "name": "Hybreasal House"}, {"lat": 53.3388761644881, "long": -6.30793670636019, "id": 1371, "name": "Suir Road"}, {"lat": 53.3381036945503, "long": -6.30987444642342, "id": 1372, "name": "Goldenbridge Avenue"}, {"lat": 53.3377747591139, "long": -6.31203486545014, "id": 1373, "name": "Stephen's Road"}, {"lat": 53.3392177102615, "long": -6.31301407116768, "id": 1374, "name": "Southern Cross Ave"}, {"lat": 53.3395561606235, "long": -6.31215973185628, "id": 1375, "name": "Bulfin Road"}], "68A_87": [{"lat": 53.3395561606235, "long": -6.31215973185628, "id": 1375, "name": "Bulfin Road"}, {"lat": 53.3395079105879, "long": -6.30875267180085, "id": 1376, "name": "South Circular Road"}, {"lat": 53.3391633646071, "long": -6.30474165527077, "id": 1377, "name": "South Circular Road"}, {"lat": 53.3388278749061, "long": -6.30137608273123, "id": 1378, "name": "Mayfield Road"}, {"lat": 53.3373397013539, "long": -6.29912265320936, "id": 1379, "name": "Rialto Luas"}, {"lat": 53.3356410022647, "long": -6.29597679911966, "id": 1380, "name": "Rialto Church"}, {"lat": 53.3351237466286, "long": -6.29374502629878, "id": 1381, "name": "St Andrews Centre"}, {"lat": 53.3331731706723, "long": -6.29059460205889, "id": 1382, "name": "Dolphins Barn Church"}, {"lat": 53.3322710783564, "long": -6.28660666292568, "id": 1383, "name": "Dolphin Avenue"}, {"lat": 53.3313561981853, "long": -6.28236415375612, "id": 1384, "name": "Dufferin Avenue"}, {"lat": 53.3318004002752, "long": -6.27826227183304, "id": 1385, "name": "Griffith College"}, {"lat": 53.3322495353642, "long": -6.27388983282417, "id": 1348, "name": "Spencer St South"}, {"lat": 53.3323857279067, "long": -6.27088132287852, "id": 1349, "name": "Carlisle Street"}, {"lat": 53.3325610927835, "long": -6.26748081181982, "id": 1350, "name": "Harrington Street"}, {"lat": 53.3344454316098, "long": -6.26540733380824, "id": 1352, "name": "Camden Street Lower"}, {"lat": 53.3360095336323, "long": -6.26541893799962, "id": 1353, "name": "Pleasants Street"}, null, {"lat": 53.3400962425911, "long": -6.26583875541442, "id": 1355, "name": "Whitefriars Street"}, {"lat": 53.342567894408, "long": -6.26459703020812, "id": 1357, "name": "Exchequer Street"}, {"lat": 53.3443047133873, "long": -6.26288938939078, "id": 1358, "name": "Dame Street"}, {"lat": 53.3468221439337, "long": -6.25677897149017, "id": 7665, "name": "Poolbeg Street"}]}