{"77A_28": [{"lat": 53.2912892220389, "long": -6.42713641091449, "id": 4713, "name": "Bianconi Avenue"}, {"lat": 53.2887472357334, "long": -6.42385492509483, "id": 4714, "name": "Castle Drive"}, {"lat": 53.285050592141, "long": -6.42162128652657, "id": 4960, "name": "Citywest Road"}, {"lat": 53.2788609880719, "long": -6.42049974981811, "id": 4932, "name": "Magna Drive"}, {"lat": 53.2776403003773, "long": -6.41927014304665, "id": 4933, "name": "Belfry"}, {"lat": 53.2751454328569, "long": -6.41549358352695, "id": 2590, "name": "Belfry Downs"}, {"lat": 53.2746108567564, "long": -6.41044522105172, "id": 2591, "name": "De Selby Estate"}, {"lat": 53.2743034961601, "long": -6.4062731923077, "id": 2592, "name": "Kiltalown Cottages"}, {"lat": 53.2779689604244, "long": -6.39676450981217, "id": 2357, "name": "Jobstown House"}, {"lat": 53.277755906692, "long": -6.39495801430494, "id": 2566, "name": "Killinarden School"}, {"lat": 53.275765911704, "long": -6.39468769528682, "id": 2567, "name": "Hazelgrove"}, {"lat": 53.2737235798839, "long": -6.39053585920059, "id": 2568, "name": "Killinarden Heights"}, {"lat": 53.2730917136781, "long": -6.38634628300231, "id": 2569, "name": "Donomore Avenue"}, {"lat": 53.2735257417022, "long": -6.38057217513132, "id": 7550, "name": "Donomore Crescent"}, {"lat": 53.276246546268, "long": -6.37905977311639, "id": 2570, "name": "Health Care Centre"}, {"lat": 53.2806118378806, "long": -6.38414339180352, "id": 2571, "name": "Killinarden Estate"}, {"lat": 53.2835900308723, "long": -6.38437596627328, "id": 2359, "name": "Maplewood Avenue"}, {"lat": 53.2846948207372, "long": -6.37968487975509, "id": 2360, "name": "Alderwood"}, {"lat": 53.2866816358714, "long": -6.37509506338677, "id": 4348, "name": "Tallaght Luas"}, {"lat": 53.289438713432, "long": -6.37427044038538, "id": 4646, "name": "Tallaght Hospital"}, {"lat": 53.2900574732911, "long": -6.37153194884297, "id": 4647, "name": "South Dublin CC"}, {"lat": 53.2900797370852, "long": -6.36790110381362, "id": 2346, "name": "Belgard Square North"}, {"lat": 53.2888429202751, "long": -6.36356837702223, "id": 4435, "name": "Tallaght Village"}, {"lat": 53.2868149331801, "long": -6.361846019424, "id": 2604, "name": "Village Green"}, {"lat": 53.2840559727612, "long": -6.35991184833953, "id": 2605, "name": "St Maelruan's Park"}, {"lat": 53.2815345660125, "long": -6.35891362658069, "id": 2538, "name": "The Crescent"}, {"lat": 53.280687041243, "long": -6.35611172058534, "id": 2606, "name": "Seskin View Road"}, {"lat": 53.2816222439678, "long": -6.3502869564886, "id": 2607, "name": "Millbrook Lawns"}, {"lat": 53.2827192694236, "long": -6.34772512397811, "id": 2608, "name": "Avonmore Road"}, {"lat": 53.2847852777384, "long": -6.34310095668828, "id": 2609, "name": "Avonmore Drive"}, {"lat": 53.2874613057722, "long": -6.34098752062897, "id": 2610, "name": "Bolbrook"}, {"lat": 53.2890402900917, "long": -6.3394863676336, "id": 2554, "name": "Glenview Park"}, {"lat": 53.2906588419378, "long": -6.34341365950677, "id": 2425, "name": "Castletymon Road"}, {"lat": 53.2932034182472, "long": -6.34283515535471, "id": 2426, "name": "St Aengus Church"}, {"lat": 53.2959797105037, "long": -6.34082240352393, "id": 2427, "name": "Tymon Lane"}, {"lat": 53.298335949369, "long": -6.34350660914583, "id": 2428, "name": "Tymon Park"}, {"lat": 53.2995447684511, "long": -6.34641548547526, "id": 2429, "name": "Tymon North School"}, {"lat": 53.300921380266, "long": -6.35041333241483, "id": 2430, "name": "Tymonville Grove"}, {"lat": 53.3033968969847, "long": -6.35133822643901, "id": 2371, "name": "Kilnamanagh SC"}, {"lat": 53.3072568776087, "long": -6.34773810297749, "id": 2372, "name": "Old Tymon Lane"}, {"lat": 53.3107116337382, "long": -6.34473828870487, "id": 2373, "name": "Kilakee Drive"}, {"lat": 53.3160470777079, "long": -6.33416048619781, "id": 2377, "name": "Greenhills SC"}, {"lat": 53.3181478211858, "long": -6.33269775229581, "id": 2378, "name": "Walkinstown Road"}, {"lat": 53.3217039808398, "long": -6.33054760884823, "id": 2183, "name": "Walkinstown Shop Cen"}, {"lat": 53.3229966132193, "long": -6.32914609742305, "id": 2184, "name": "Drimnagh Road Junc"}, {"lat": 53.3242587027691, "long": -6.32749048930551, "id": 2185, "name": "Slievebloom Road"}, {"lat": 53.3250607821042, "long": -6.3186918941508, "id": 7043, "name": "St Mary's Road"}, {"lat": 53.3256625125872, "long": -6.31674662153121, "id": 1424, "name": "Crumlin Hospital"}, {"lat": 53.3269332843438, "long": -6.31253797965369, "id": 2186, "name": "Crumlin Road"}, {"lat": 53.3280452768604, "long": -6.30728442530439, "id": 2187, "name": "Iveagh Grounds"}, {"lat": 53.3290169228319, "long": -6.30292198124806, "id": 2188, "name": "Crumlin College"}, {"lat": 53.3296953958841, "long": -6.30007240820084, "id": 2189, "name": "Crumlin SC"}, {"lat": 53.3308849576952, "long": -6.29651171993402, "id": 1436, "name": "Herberton Road"}, {"lat": 53.3316839465215, "long": -6.29455799199736, "id": 3952, "name": "Rutland Avenue"}, {"lat": 53.3327705719712, "long": -6.2926077161978, "id": 2190, "name": "Dolphin's Barn"}, {"lat": 53.3358683779528, "long": -6.28925547896635, "id": 4434, "name": "Coombe Hospital"}, {"lat": 53.3378334357811, "long": -6.28464170707985, "id": 2379, "name": "Marion Villas"}, {"lat": 53.3385060739033, "long": -6.28016962356299, "id": 2380, "name": "Ardee Street"}, {"lat": 53.3388578109852, "long": -6.27838342591739, "id": 2382, "name": "St Luke's Avenue"}, {"lat": 53.3389824385794, "long": -6.27581043675113, "id": 5099, "name": "Newmarket Street"}, {"lat": 53.3394580682633, "long": -6.2726525825533, "id": 2383, "name": "Patrick's Cathedral"}, {"lat": 53.3437708065888, "long": -6.26944439003136, "id": 2002, "name": "Lord Edward Street"}, {"lat": 53.3443047133873, "long": -6.26288938939078, "id": 1358, "name": "Dame Street"}, {"lat": 53.3460128066393, "long": -6.25613609916839, "id": 340, "name": "Townsend Street"}, {"lat": 53.3456319415842, "long": -6.24976824959419, "id": 350, "name": "Prince's St South"}, {"lat": 53.3434182647933, "long": -6.24530817378356, "id": 351, "name": "Erne Street"}, {"lat": 53.3429891458056, "long": -6.24241213998985, "id": 352, "name": "Pearse Square"}, {"lat": 53.3426158463834, "long": -6.23964903171018, "id": 353, "name": "Grand Canal Quay"}, {"lat": 53.34223582802, "long": -6.23643568982665, "id": 354, "name": "Ringsend Road"}], "77A_29": [{"lat": 53.3419400535678, "long": -6.23527645441628, "id": 395, "name": "Ringsend Road"}, {"lat": 53.3424615903765, "long": -6.23955025594788, "id": 396, "name": "Grand Canal Quay"}, {"lat": 53.342785555443, "long": -6.24201500730756, "id": 397, "name": "Pearse Square"}, {"lat": 53.3432949350384, "long": -6.24547844686784, "id": 398, "name": "Erne Street"}, {"lat": 53.3438668221087, "long": -6.2483086014322, "id": 399, "name": "Pearse Station"}, {"lat": 53.344846483913, "long": -6.25320984701663, "id": 400, "name": "Shaw Street"}, {"lat": 53.3442624890487, "long": -6.2606081798795, "id": 4522, "name": "College Green"}, {"lat": 53.3441183606967, "long": -6.26552532473915, "id": 1934, "name": "Dame Street"}, {"lat": 53.3424457018012, "long": -6.26979842837399, "id": 2310, "name": "Werburgh Street"}, {"lat": 53.3382852826653, "long": -6.27049246703827, "id": 2311, "name": "Kevin Street"}, {"lat": 53.3388788545774, "long": -6.27548423467158, "id": 2312, "name": "St Luke's Avenue"}, {"lat": 53.3387423330578, "long": -6.27847818154424, "id": 2313, "name": "Ardee Court"}, {"lat": 53.3383536836872, "long": -6.28082149273864, "id": 2314, "name": "Cork Street"}, {"lat": 53.3375364314403, "long": -6.28523928429942, "id": 2315, "name": "Brickfield Lane"}, {"lat": 53.3347519664071, "long": -6.28975063819714, "id": 2094, "name": "Coombe Hospital"}, {"lat": 53.3331529314539, "long": -6.29169152684095, "id": 1406, "name": "Dolphin's Barn"}, {"lat": 53.3315385027721, "long": -6.2944436769088, "id": 1407, "name": "Crumlin Road"}, {"lat": 53.3303667447669, "long": -6.29735815557584, "id": 1409, "name": "Loreto College"}, {"lat": 53.3290374667788, "long": -6.30247075150147, "id": 2095, "name": "Crumlin SC"}, {"lat": 53.3280835904832, "long": -6.3068174910165, "id": 2096, "name": "Guinness RFC"}, {"lat": 53.3274327540357, "long": -6.30972580638994, "id": 2097, "name": "Iveagh Gardens"}, {"lat": 53.3255615813935, "long": -6.31660046938247, "id": 2099, "name": "Drimnagh Road"}, {"lat": 53.3249545652181, "long": -6.31817063885903, "id": 2101, "name": "Crumlin Hospital"}, {"lat": 53.3241948460768, "long": -6.32614190218009, "id": 2102, "name": "Balfe Road"}, {"lat": 53.3220826954818, "long": -6.32999241707335, "id": 2103, "name": "Walkinstown Road"}, {"lat": 53.3208746366549, "long": -6.33101530032291, "id": 2332, "name": "Walkinstown Mall"}, {"lat": 53.3178417645959, "long": -6.33266465395946, "id": 2333, "name": "Walkinstown Rdbt"}, {"lat": 53.3155340136633, "long": -6.33475080976013, "id": 2334, "name": "Greenhills Road"}, {"lat": 53.3133051863598, "long": -6.34121606402376, "id": 4662, "name": "Hillcrest Park"}, {"lat": 53.3116507619473, "long": -6.34311114449921, "id": 2335, "name": "Calmount Avenue"}, {"lat": 53.3088560239831, "long": -6.34574049195714, "id": 2336, "name": "Tibradden Drive"}, {"lat": 53.3059914350169, "long": -6.34852224326364, "id": 2337, "name": "Old Tymon Lane"}, {"lat": 53.3025723019747, "long": -6.35150503436292, "id": 2339, "name": "Elmcastle Court"}, {"lat": 53.3011849394606, "long": -6.35127340118161, "id": 2420, "name": "Tymonville"}, {"lat": 53.2996703260459, "long": -6.34639563095132, "id": 2421, "name": "Tymon North Road"}, {"lat": 53.2982653587464, "long": -6.3429542331971, "id": 2423, "name": "Tymon Park"}, {"lat": 53.2951494846255, "long": -6.34122962985521, "id": 2424, "name": "Castletymon Green"}, {"lat": 53.2929855283159, "long": -6.3426785783227, "id": 2447, "name": "St Aengus Church"}, {"lat": 53.2905101106874, "long": -6.3430594096978, "id": 5133, "name": "Castle Park"}, {"lat": 53.2898063494852, "long": -6.34092665251652, "id": 2596, "name": "Glenview Lawn"}, {"lat": 53.2869170961386, "long": -6.34063363271395, "id": 2611, "name": "Bolbrook"}, {"lat": 53.2842949179581, "long": -6.34403480924659, "id": 2602, "name": "Avonmore Park"}, {"lat": 53.2825053322815, "long": -6.34785335715701, "id": 2613, "name": "Homelawn Road"}, {"lat": 53.2814295882604, "long": -6.35065430575042, "id": 2614, "name": "Seskin View Road"}, {"lat": 53.280682587885, "long": -6.35513710406153, "id": 2615, "name": "New Bawn Park"}, {"lat": 53.2810133262294, "long": -6.35891860284655, "id": 2535, "name": "Seskin View Road"}, {"lat": 53.2829548505574, "long": -6.3595790811863, "id": 2536, "name": "Old Bawn Court"}, {"lat": 53.2846412135112, "long": -6.36063933900617, "id": 2616, "name": "St Maelruan's Park"}, {"lat": 53.2867102221549, "long": -6.3620750078624, "id": 2617, "name": "Village Green"}, {"lat": 53.2885064213373, "long": -6.36328124896311, "id": 2557, "name": "Tallaght Village"}, {"lat": 53.2891682645027, "long": -6.36697586970939, "id": 4436, "name": "IT Tallaght"}, {"lat": 53.2904501890302, "long": -6.3693569938866, "id": 5008, "name": "Belgard Square North"}, {"lat": 53.289395624798, "long": -6.37374708548246, "id": 4640, "name": "Tallaght Hospital"}, {"lat": 53.2862220524214, "long": -6.37500751308391, "id": 4347, "name": "The Square Tallaght"}, {"lat": 53.2850288716238, "long": -6.37847238352646, "id": 2349, "name": "Alderwood"}, {"lat": 53.2832055705941, "long": -6.3845254486257, "id": 2351, "name": "Blessington Road"}, {"lat": 53.2802494527158, "long": -6.38393211607987, "id": 2558, "name": "Killinarden Estate"}, {"lat": 53.276380482704, "long": -6.37899472410106, "id": 2559, "name": "Health Care Centre"}, {"lat": 53.2739022564133, "long": -6.37983821539069, "id": 2560, "name": "Cushlawn Park"}, {"lat": 53.2727602973652, "long": -6.38443954790541, "id": 2561, "name": "Donomore Crescent"}, {"lat": 53.2731850716708, "long": -6.38793213453595, "id": 2562, "name": "Sacred Heart FC"}, {"lat": 53.2737654963264, "long": -6.39164385764597, "id": 2564, "name": "Killinarden Heights"}, {"lat": 53.2748355654726, "long": -6.39434769440277, "id": 4927, "name": "Hazel Grove"}, {"lat": 53.2759929207157, "long": -6.39485912803681, "id": 4928, "name": "Killinarden Comm Sch"}, {"lat": 53.2775372313765, "long": -6.39741048190077, "id": 2352, "name": "Jobstown House"}, {"lat": 53.2742753736053, "long": -6.4068590193323, "id": 2573, "name": "Kiltalown Cottages"}, {"lat": 53.2745607514065, "long": -6.41073197519197, "id": 2574, "name": "De Selby Estate"}, {"lat": 53.2771580082974, "long": -6.41882308493602, "id": 2575, "name": "Corbally Vale"}, {"lat": 53.2808055658936, "long": -6.42141781405817, "id": 4929, "name": "Verschoyle Avenue"}, {"lat": 53.2826316202709, "long": -6.4215304732232, "id": 7460, "name": "Citywest SC"}, {"lat": 53.287569714924, "long": -6.42248836386907, "id": 4930, "name": "Citywest Avenue"}, {"lat": 53.28901878191, "long": -6.42535987909249, "id": 4931, "name": "Orchard Avenue"}, {"lat": 53.2908418206833, "long": -6.42728784873351, "id": 7459, "name": "Bianconi Avenue"}], "77A_30": [{"lat": 53.3419400535678, "long": -6.23527645441628, "id": 395, "name": "Ringsend Road"}, {"lat": 53.3424615903765, "long": -6.23955025594788, "id": 396, "name": "Grand Canal Quay"}, {"lat": 53.342785555443, "long": -6.24201500730756, "id": 397, "name": "Pearse Square"}, {"lat": 53.3432949350384, "long": -6.24547844686784, "id": 398, "name": "Erne Street"}, {"lat": 53.3438668221087, "long": -6.2483086014322, "id": 399, "name": "Pearse Station"}, {"lat": 53.344846483913, "long": -6.25320984701663, "id": 400, "name": "Shaw Street"}, {"lat": 53.3442624890487, "long": -6.2606081798795, "id": 4522, "name": "College Green"}, {"lat": 53.3441183606967, "long": -6.26552532473915, "id": 1934, "name": "Dame Street"}, {"lat": 53.3424457018012, "long": -6.26979842837399, "id": 2310, "name": "Werburgh Street"}, {"lat": 53.3382852826653, "long": -6.27049246703827, "id": 2311, "name": "Kevin Street"}, {"lat": 53.3388788545774, "long": -6.27548423467158, "id": 2312, "name": "St Luke's Avenue"}, {"lat": 53.3387423330578, "long": -6.27847818154424, "id": 2313, "name": "Ardee Court"}, {"lat": 53.3383536836872, "long": -6.28082149273864, "id": 2314, "name": "Cork Street"}, {"lat": 53.3375364314403, "long": -6.28523928429942, "id": 2315, "name": "Brickfield Lane"}, {"lat": 53.3347519664071, "long": -6.28975063819714, "id": 2094, "name": "Coombe Hospital"}, {"lat": 53.3331529314539, "long": -6.29169152684095, "id": 1406, "name": "Dolphin's Barn"}, {"lat": 53.3315385027721, "long": -6.2944436769088, "id": 1407, "name": "Crumlin Road"}, {"lat": 53.3303667447669, "long": -6.29735815557584, "id": 1409, "name": "Loreto College"}, {"lat": 53.3290374667788, "long": -6.30247075150147, "id": 2095, "name": "Crumlin SC"}, {"lat": 53.3280835904832, "long": -6.3068174910165, "id": 2096, "name": "Guinness RFC"}, {"lat": 53.3274327540357, "long": -6.30972580638994, "id": 2097, "name": "Iveagh Gardens"}, {"lat": 53.3255615813935, "long": -6.31660046938247, "id": 2099, "name": "Drimnagh Road"}, {"lat": 53.3249545652181, "long": -6.31817063885903, "id": 2101, "name": "Crumlin Hospital"}, {"lat": 53.3241948460768, "long": -6.32614190218009, "id": 2102, "name": "Balfe Road"}, {"lat": 53.3220826954818, "long": -6.32999241707335, "id": 2103, "name": "Walkinstown Road"}, {"lat": 53.3208746366549, "long": -6.33101530032291, "id": 2332, "name": "Walkinstown Mall"}, {"lat": 53.3178417645959, "long": -6.33266465395946, "id": 2333, "name": "Walkinstown Rdbt"}, {"lat": 53.3155340136633, "long": -6.33475080976013, "id": 2334, "name": "Greenhills Road"}, {"lat": 53.3133051863598, "long": -6.34121606402376, "id": 4662, "name": "Hillcrest Park"}, {"lat": 53.3116507619473, "long": -6.34311114449921, "id": 2335, "name": "Calmount Avenue"}, {"lat": 53.3088560239831, "long": -6.34574049195714, "id": 2336, "name": "Tibradden Drive"}, {"lat": 53.3059914350169, "long": -6.34852224326364, "id": 2337, "name": "Old Tymon Lane"}, {"lat": 53.3025723019747, "long": -6.35150503436292, "id": 2339, "name": "Elmcastle Court"}, {"lat": 53.3011849394606, "long": -6.35127340118161, "id": 2420, "name": "Tymonville"}, {"lat": 53.2996703260459, "long": -6.34639563095132, "id": 2421, "name": "Tymon North Road"}, {"lat": 53.2982653587464, "long": -6.3429542331971, "id": 2423, "name": "Tymon Park"}, {"lat": 53.2951494846255, "long": -6.34122962985521, "id": 2424, "name": "Castletymon Green"}, {"lat": 53.2929855283159, "long": -6.3426785783227, "id": 2447, "name": "St Aengus Church"}, {"lat": 53.2905101106874, "long": -6.3430594096978, "id": 5133, "name": "Castle Park"}, {"lat": 53.2898063494852, "long": -6.34092665251652, "id": 2596, "name": "Glenview Lawn"}, {"lat": 53.2869170961386, "long": -6.34063363271395, "id": 2611, "name": "Bolbrook"}, {"lat": 53.2842949179581, "long": -6.34403480924659, "id": 2602, "name": "Avonmore Park"}, {"lat": 53.2825053322815, "long": -6.34785335715701, "id": 2613, "name": "Homelawn Road"}, {"lat": 53.2814295882604, "long": -6.35065430575042, "id": 2614, "name": "Seskin View Road"}, {"lat": 53.280682587885, "long": -6.35513710406153, "id": 2615, "name": "New Bawn Park"}, {"lat": 53.2810133262294, "long": -6.35891860284655, "id": 2535, "name": "Seskin View Road"}, {"lat": 53.2829548505574, "long": -6.3595790811863, "id": 2536, "name": "Old Bawn Court"}, {"lat": 53.2846412135112, "long": -6.36063933900617, "id": 2616, "name": "St Maelruan's Park"}, {"lat": 53.2867102221549, "long": -6.3620750078624, "id": 2617, "name": "Village Green"}, {"lat": 53.2885064213373, "long": -6.36328124896311, "id": 2557, "name": "Tallaght Village"}, {"lat": 53.2891682645027, "long": -6.36697586970939, "id": 4436, "name": "IT Tallaght"}, {"lat": 53.2904501890302, "long": -6.3693569938866, "id": 5008, "name": "Belgard Square North"}, {"lat": 53.289395624798, "long": -6.37374708548246, "id": 4640, "name": "Tallaght Hospital"}, {"lat": 53.2862220524214, "long": -6.37500751308391, "id": 4347, "name": "The Square Tallaght"}, {"lat": 53.2850288716238, "long": -6.37847238352646, "id": 2349, "name": "Alderwood"}, {"lat": 53.2832055705941, "long": -6.3845254486257, "id": 2351, "name": "Blessington Road"}, {"lat": 53.2802494527158, "long": -6.38393211607987, "id": 2558, "name": "Killinarden Estate"}, {"lat": 53.276380482704, "long": -6.37899472410106, "id": 2559, "name": "Health Care Centre"}, {"lat": 53.2739022564133, "long": -6.37983821539069, "id": 2560, "name": "Cushlawn Park"}, {"lat": 53.2727602973652, "long": -6.38443954790541, "id": 2561, "name": "Donomore Crescent"}, {"lat": 53.2731850716708, "long": -6.38793213453595, "id": 2562, "name": "Sacred Heart FC"}, {"lat": 53.2737654963264, "long": -6.39164385764597, "id": 2564, "name": "Killinarden Heights"}, {"lat": 53.2748355654726, "long": -6.39434769440277, "id": 4927, "name": "Hazel Grove"}, {"lat": 53.2759929207157, "long": -6.39485912803681, "id": 4928, "name": "Killinarden Comm Sch"}, {"lat": 53.2775372313765, "long": -6.39741048190077, "id": 2352, "name": "Jobstown House"}, {"lat": 53.2742753736053, "long": -6.4068590193323, "id": 2573, "name": "Kiltalown Cottages"}, {"lat": 53.2745607514065, "long": -6.41073197519197, "id": 2574, "name": "De Selby Estate"}, {"lat": 53.2771580082974, "long": -6.41882308493602, "id": 2575, "name": "Corbally Vale"}, {"lat": 53.2808055658936, "long": -6.42141781405817, "id": 4929, "name": "Verschoyle Avenue"}, {"lat": 53.2826316202709, "long": -6.4215304732232, "id": 7460, "name": "Citywest SC"}, {"lat": 53.287569714924, "long": -6.42248836386907, "id": 4930, "name": "Citywest Avenue"}, {"lat": 53.28901878191, "long": -6.42535987909249, "id": 4931, "name": "Orchard Avenue"}, {"lat": 53.2908418206833, "long": -6.42728784873351, "id": 7459, "name": "Bianconi Avenue"}], "77A_31": [{"lat": 53.2912892220389, "long": -6.42713641091449, "id": 4713, "name": "Bianconi Avenue"}, {"lat": 53.2887472357334, "long": -6.42385492509483, "id": 4714, "name": "Castle Drive"}, {"lat": 53.285050592141, "long": -6.42162128652657, "id": 4960, "name": "Citywest Road"}, {"lat": 53.2788609880719, "long": -6.42049974981811, "id": 4932, "name": "Magna Drive"}, {"lat": 53.2776403003773, "long": -6.41927014304665, "id": 4933, "name": "Belfry"}, {"lat": 53.2751454328569, "long": -6.41549358352695, "id": 2590, "name": "Belfry Downs"}, {"lat": 53.2746108567564, "long": -6.41044522105172, "id": 2591, "name": "De Selby Estate"}, {"lat": 53.2743034961601, "long": -6.4062731923077, "id": 2592, "name": "Kiltalown Cottages"}, {"lat": 53.2779689604244, "long": -6.39676450981217, "id": 2357, "name": "Jobstown House"}, {"lat": 53.277755906692, "long": -6.39495801430494, "id": 2566, "name": "Killinarden School"}, {"lat": 53.275765911704, "long": -6.39468769528682, "id": 2567, "name": "Hazelgrove"}, {"lat": 53.2737235798839, "long": -6.39053585920059, "id": 2568, "name": "Killinarden Heights"}, {"lat": 53.2730917136781, "long": -6.38634628300231, "id": 2569, "name": "Donomore Avenue"}, {"lat": 53.2735257417022, "long": -6.38057217513132, "id": 7550, "name": "Donomore Crescent"}, {"lat": 53.276246546268, "long": -6.37905977311639, "id": 2570, "name": "Health Care Centre"}, {"lat": 53.2806118378806, "long": -6.38414339180352, "id": 2571, "name": "Killinarden Estate"}, {"lat": 53.2835900308723, "long": -6.38437596627328, "id": 2359, "name": "Maplewood Avenue"}, {"lat": 53.2846948207372, "long": -6.37968487975509, "id": 2360, "name": "Alderwood"}, {"lat": 53.2866816358714, "long": -6.37509506338677, "id": 4348, "name": "Tallaght Luas"}, {"lat": 53.289438713432, "long": -6.37427044038538, "id": 4646, "name": "Tallaght Hospital"}, {"lat": 53.2900574732911, "long": -6.37153194884297, "id": 4647, "name": "South Dublin CC"}, {"lat": 53.2900797370852, "long": -6.36790110381362, "id": 2346, "name": "Belgard Square North"}, {"lat": 53.2888429202751, "long": -6.36356837702223, "id": 4435, "name": "Tallaght Village"}, {"lat": 53.2868149331801, "long": -6.361846019424, "id": 2604, "name": "Village Green"}, {"lat": 53.2840559727612, "long": -6.35991184833953, "id": 2605, "name": "St Maelruan's Park"}, {"lat": 53.2815345660125, "long": -6.35891362658069, "id": 2538, "name": "The Crescent"}, {"lat": 53.280687041243, "long": -6.35611172058534, "id": 2606, "name": "Seskin View Road"}, {"lat": 53.2816222439678, "long": -6.3502869564886, "id": 2607, "name": "Millbrook Lawns"}, {"lat": 53.2827192694236, "long": -6.34772512397811, "id": 2608, "name": "Avonmore Road"}, {"lat": 53.2847852777384, "long": -6.34310095668828, "id": 2609, "name": "Avonmore Drive"}, {"lat": 53.2874613057722, "long": -6.34098752062897, "id": 2610, "name": "Bolbrook"}, {"lat": 53.2890402900917, "long": -6.3394863676336, "id": 2554, "name": "Glenview Park"}, {"lat": 53.2906588419378, "long": -6.34341365950677, "id": 2425, "name": "Castletymon Road"}, {"lat": 53.2932034182472, "long": -6.34283515535471, "id": 2426, "name": "St Aengus Church"}, {"lat": 53.2959797105037, "long": -6.34082240352393, "id": 2427, "name": "Tymon Lane"}, {"lat": 53.298335949369, "long": -6.34350660914583, "id": 2428, "name": "Tymon Park"}, {"lat": 53.2995447684511, "long": -6.34641548547526, "id": 2429, "name": "Tymon North School"}, {"lat": 53.300921380266, "long": -6.35041333241483, "id": 2430, "name": "Tymonville Grove"}, {"lat": 53.3033968969847, "long": -6.35133822643901, "id": 2371, "name": "Kilnamanagh SC"}, {"lat": 53.3072568776087, "long": -6.34773810297749, "id": 2372, "name": "Old Tymon Lane"}, {"lat": 53.3107116337382, "long": -6.34473828870487, "id": 2373, "name": "Kilakee Drive"}, {"lat": 53.3160470777079, "long": -6.33416048619781, "id": 2377, "name": "Greenhills SC"}, {"lat": 53.3181478211858, "long": -6.33269775229581, "id": 2378, "name": "Walkinstown Road"}, {"lat": 53.3217039808398, "long": -6.33054760884823, "id": 2183, "name": "Walkinstown Shop Cen"}, {"lat": 53.3229966132193, "long": -6.32914609742305, "id": 2184, "name": "Drimnagh Road Junc"}, {"lat": 53.3242587027691, "long": -6.32749048930551, "id": 2185, "name": "Slievebloom Road"}, {"lat": 53.3250607821042, "long": -6.3186918941508, "id": 7043, "name": "St Mary's Road"}, {"lat": 53.3256625125872, "long": -6.31674662153121, "id": 1424, "name": "Crumlin Hospital"}, {"lat": 53.3269332843438, "long": -6.31253797965369, "id": 2186, "name": "Crumlin Road"}, {"lat": 53.3280452768604, "long": -6.30728442530439, "id": 2187, "name": "Iveagh Grounds"}, {"lat": 53.3290169228319, "long": -6.30292198124806, "id": 2188, "name": "Crumlin College"}, {"lat": 53.3296953958841, "long": -6.30007240820084, "id": 2189, "name": "Crumlin SC"}, {"lat": 53.3308849576952, "long": -6.29651171993402, "id": 1436, "name": "Herberton Road"}, {"lat": 53.3316839465215, "long": -6.29455799199736, "id": 3952, "name": "Rutland Avenue"}, {"lat": 53.3327705719712, "long": -6.2926077161978, "id": 2190, "name": "Dolphin's Barn"}, {"lat": 53.3358683779528, "long": -6.28925547896635, "id": 4434, "name": "Coombe Hospital"}, {"lat": 53.3378334357811, "long": -6.28464170707985, "id": 2379, "name": "Marion Villas"}, {"lat": 53.3385060739033, "long": -6.28016962356299, "id": 2380, "name": "Ardee Street"}, {"lat": 53.3388578109852, "long": -6.27838342591739, "id": 2382, "name": "St Luke's Avenue"}, {"lat": 53.3389824385794, "long": -6.27581043675113, "id": 5099, "name": "Newmarket Street"}, {"lat": 53.3394580682633, "long": -6.2726525825533, "id": 2383, "name": "Patrick's Cathedral"}, {"lat": 53.3437708065888, "long": -6.26944439003136, "id": 2002, "name": "Lord Edward Street"}, {"lat": 53.3443047133873, "long": -6.26288938939078, "id": 1358, "name": "Dame Street"}, {"lat": 53.3460128066393, "long": -6.25613609916839, "id": 340, "name": "Townsend Street"}, {"lat": 53.3456319415842, "long": -6.24976824959419, "id": 350, "name": "Prince's St South"}, {"lat": 53.3434182647933, "long": -6.24530817378356, "id": 351, "name": "Erne Street"}, {"lat": 53.3429891458056, "long": -6.24241213998985, "id": 352, "name": "Pearse Square"}, {"lat": 53.3426158463834, "long": -6.23964903171018, "id": 353, "name": "Grand Canal Quay"}, {"lat": 53.34223582802, "long": -6.23643568982665, "id": 354, "name": "Ringsend Road"}]}