{"79_10": [{"lat": 53.3465535364808, "long": -6.26054494722455, "id": 326, "name": "Aston Quay"}, {"lat": 53.3451293906946, "long": -6.26953955862604, "id": 1443, "name": "Civic Offices"}, {"lat": 53.3450180037747, "long": -6.27426019093106, "id": 1444, "name": "Merchant's Quay"}, {"lat": 53.3456784102547, "long": -6.27828883961715, "id": 1445, "name": "Usher's Quay"}, {"lat": 53.3465291195087, "long": -6.2861851185728, "id": 4407, "name": "Victoria Quay"}, {"lat": 53.3458840623229, "long": -6.29385604999962, "id": 2637, "name": "Heuston Station"}, {"lat": 53.345658753708, "long": -6.29695909835277, "id": 2638, "name": "St Johns Road West"}, {"lat": 53.342044525615, "long": -6.30889257217379, "id": 2640, "name": "Inchicore Road"}, {"lat": 53.341966007299, "long": -6.31541363492024, "id": 2641, "name": "Camac Court"}, {"lat": 53.3415322602177, "long": -6.32098745487593, "id": 2643, "name": "Sarsfield Road"}, {"lat": 53.3419905931301, "long": -6.32738226562616, "id": 2644, "name": "Sarsfield Medical"}, {"lat": 53.3416965343725, "long": -6.33077287022903, "id": 2645, "name": "Lally Road"}, {"lat": 53.3414944858325, "long": -6.33367925990098, "id": 2646, "name": "Decies Road"}, {"lat": 53.3406470674039, "long": -6.33800739822255, "id": 2647, "name": "Markievicz Park"}, {"lat": 53.3397230210162, "long": -6.34265370103923, "id": 2648, "name": "Ramillies Road"}, {"lat": 53.33911057673, "long": -6.34580104128989, "id": 2649, "name": "Thomond Road"}, {"lat": 53.3377655575823, "long": -6.34667902336197, "id": 2650, "name": "Landen Road"}, {"lat": 53.3388459496921, "long": -6.34810890913172, "id": 2652, "name": "Kylemore Avenue"}, {"lat": 53.3402347651841, "long": -6.34844568463053, "id": 2653, "name": "Ballyfermot Crescent"}, {"lat": 53.3412987302067, "long": -6.34868990718235, "id": 2654, "name": "Ballyfermot Road"}, {"lat": 53.3421381592182, "long": -6.35284757646732, "id": 2655, "name": "Ballyfermot Parade"}, {"lat": 53.3426234944772, "long": -6.35871610719473, "id": 2656, "name": "Ballyfermot"}, {"lat": 53.341317060878, "long": -6.3617548659033, "id": 2657, "name": "Clifden Road"}, {"lat": 53.3391624351811, "long": -6.36128182324465, "id": 2658, "name": "Oranmore Road"}, {"lat": 53.3370212365377, "long": -6.36047794826202, "id": 2659, "name": "Raheen Park Estate"}, {"lat": 53.3357750383159, "long": -6.36070594347996, "id": 2660, "name": "Cherry Orchard Ave"}, {"lat": 53.3354860616891, "long": -6.3651917772485, "id": 2661, "name": "Cherry Orchard Drive"}, {"lat": 53.3367935226576, "long": -6.37009717708453, "id": 2662, "name": "Cherry Orchard Way"}, {"lat": 53.3374092423353, "long": -6.37372272985239, "id": 2909, "name": "Saint Ultans School"}, {"lat": 53.3389141422916, "long": -6.37335010518133, "id": 2906, "name": "Blackditch Road"}, {"lat": 53.340255268087, "long": -6.37217273806717, "id": 2907, "name": "Orchard Lawns"}, {"lat": 53.33969514562, "long": -6.36735846833769, "id": 2908, "name": "Spiddal Park"}], "79_11": [{"lat": 53.3403899393825, "long": -6.36755718950931, "id": 2670, "name": "Spiddal Park"}, {"lat": 53.3410659893942, "long": -6.37164626600922, "id": 2910, "name": "Spiddal Road"}, {"lat": 53.3387440732575, "long": -6.37340162942583, "id": 2911, "name": "Cherry Orchard Park"}, {"lat": 53.3374114730701, "long": -6.37322709729874, "id": 7507, "name": "Saint Ultans School"}, {"lat": 53.3369139961334, "long": -6.37036287855571, "id": 2663, "name": "Croftwood Crescent"}, {"lat": 53.3356011990015, "long": -6.36506724567254, "id": 2664, "name": "Cherry Orchard Drive"}, {"lat": 53.3358803626012, "long": -6.36052171092517, "id": 2665, "name": "Croftwood Park"}, {"lat": 53.3376007023408, "long": -6.3607860866314, "id": 2666, "name": "Clifden Drive"}, {"lat": 53.34069762827, "long": -6.36180864778953, "id": 2667, "name": "Clifden Road"}, {"lat": 53.3426876161017, "long": -6.35880375521615, "id": 2696, "name": "Ballyfermot"}, {"lat": 53.3422774660978, "long": -6.35317261042737, "id": 2697, "name": "Ballyfermot Parade"}, {"lat": 53.3412966526, "long": -6.34853980731355, "id": 2700, "name": "Kylemore Road"}, {"lat": 53.3401698049081, "long": -6.34829801891186, "id": 2701, "name": "Ballyfermot Crescent"}, {"lat": 53.338103299905, "long": -6.34770212371671, "id": 2702, "name": "Kylemore Avenue"}, {"lat": 53.3382847108033, "long": -6.34652378732581, "id": 2703, "name": "Thomond Road"}, {"lat": 53.3392390804214, "long": -6.34534554835472, "id": 2704, "name": "Decies Road"}, {"lat": 53.3400332754719, "long": -6.34169556099459, "id": 2706, "name": "Garryowen Road"}, {"lat": 53.3408852096896, "long": -6.33703699120921, "id": 6070, "name": "O'Hogan Road"}, {"lat": 53.3418337142041, "long": -6.33287006533028, "id": 2708, "name": "Landen Road"}, {"lat": 53.3416887628656, "long": -6.33021750067863, "id": 5134, "name": "Lally Road"}, {"lat": 53.3422822606723, "long": -6.32767121720046, "id": 2718, "name": "St Mary's Avenue"}, {"lat": 53.3416457682995, "long": -6.32011193943821, "id": 2719, "name": "Woodfield Place"}, {"lat": 53.3431789302767, "long": -6.31538083570425, "id": 7435, "name": "Memorial Gardens"}, {"lat": 53.3434371042603, "long": -6.31139066326813, "id": 2722, "name": "Chapelizod Bypass"}, {"lat": 53.3461643943043, "long": -6.29271836681323, "id": 4413, "name": "Heuston Station"}, {"lat": 53.3470736855785, "long": -6.28467627539544, "id": 1476, "name": "Sarsfield Quay"}, {"lat": 53.3463358924194, "long": -6.27838250402172, "id": 7453, "name": "Arran Quay"}, {"lat": 53.3457659646548, "long": -6.2706702977241, "id": 1480, "name": "Ormond Quay Upper"}, {"lat": 53.3446304774638, "long": -6.26736693757289, "id": 2912, "name": "Parliament Street"}, {"lat": 53.3443047133873, "long": -6.26288938939078, "id": 1358, "name": "Dame Street"}, {"lat": 53.3465535364808, "long": -6.26054494722455, "id": 326, "name": "Aston Quay"}]}