{"7B_93": [{"lat": 53.234367129675, "long": -6.12223939407037, "id": 3544, "name": "Beechfield Manor"}, {"lat": 53.2372028920208, "long": -6.12308908529293, "id": 3552, "name": "Rathsallagh"}, {"lat": 53.2390265275583, "long": -6.12302426441118, "id": 3553, "name": "Hazelwood"}, {"lat": 53.2428981515326, "long": -6.12173100876907, "id": 3554, "name": "Shanganagh Bridge"}, {"lat": 53.2449122993181, "long": -6.12177764830752, "id": 3555, "name": "Aran Avenue"}, {"lat": 53.2481179653389, "long": -6.12328566799662, "id": 3556, "name": "The Elms"}, {"lat": 53.2493962745787, "long": -6.12340954850205, "id": 3557, "name": "Sheelin Estate"}, {"lat": 53.2521797542373, "long": -6.12493630566294, "id": 7317, "name": "The Nurseries"}, {"lat": 53.2519458475769, "long": -6.13236519549721, "id": 3224, "name": "Ashlawn"}, {"lat": 53.2552948672851, "long": -6.13385300991221, "id": 3225, "name": "Ballybrack SC"}, {"lat": 53.2585470715912, "long": -6.13777355798243, "id": 3226, "name": "Kilbogget Park"}, {"lat": 53.2619541741584, "long": -6.13780539377764, "id": 3227, "name": "Auburn Drive"}, {"lat": 53.2647542453765, "long": -6.13465539470502, "id": 3228, "name": "Church Road"}, {"lat": 53.2653527759427, "long": -6.13441945272899, "id": 3229, "name": "Churchview Road"}, {"lat": 53.2670680823354, "long": -6.13662362130875, "id": 7472, "name": "Killiney SC"}, {"lat": 53.2685015291178, "long": -6.13920003918439, "id": 3230, "name": "Drumkeen Manor"}, {"lat": 53.2700894891205, "long": -6.14188987343802, "id": 3231, "name": "Granitefield"}, {"lat": 53.2710762760995, "long": -6.14349639706772, "id": 3246, "name": "Johnstown Road"}, {"lat": 53.2726452445483, "long": -6.14612739248417, "id": 3247, "name": "Garden Centre"}, {"lat": 53.2735313073473, "long": -6.14761850492034, "id": 7056, "name": "Somerton"}, {"lat": 53.2759760551623, "long": -6.15166654533708, "id": 4731, "name": "National Rehab Hosp"}, {"lat": 53.2812918182702, "long": -6.15829093095012, "id": 2023, "name": "Abbey Road"}, {"lat": 53.2834492978017, "long": -6.15947298224867, "id": 2024, "name": "Rory O'Connor Park"}, {"lat": 53.2849038275037, "long": -6.16053535986143, "id": 2025, "name": "Abbey Park"}, {"lat": 53.286244480501, "long": -6.16529247984307, "id": 6086, "name": "Grange Grove"}, {"lat": 53.287381328142, "long": -6.17083857786479, "id": 7419, "name": "Rowanbyrn"}, {"lat": 53.289259022994, "long": -6.17723841626308, "id": 7420, "name": "Annaville Terrace"}, {"lat": 53.2894020575976, "long": -6.18543742382604, "id": 3345, "name": "Stillorgan Park"}, {"lat": 53.2908117067854, "long": -6.19778320998183, "id": 4727, "name": "Laurence Park"}, {"lat": 53.2933378858333, "long": -6.20198228925727, "id": 4728, "name": "Oatlands College"}, {"lat": 53.2947995033019, "long": -6.2035411112381, "id": 461, "name": "Stillorgan Pk Hotel"}, {"lat": 53.2980957596915, "long": -6.20457300251724, "id": 2068, "name": "Sycamore Cresent"}, {"lat": 53.29977469015, "long": -6.20564285265254, "id": 2069, "name": "Booterstown Avenue"}, {"lat": 53.3030660704342, "long": -6.20814570183998, "id": 2070, "name": "St Thomas Road"}, {"lat": 53.3055267568845, "long": -6.2115990204445, "id": 2084, "name": "Seafield Road"}, {"lat": 53.3094181940068, "long": -6.21877482979347, "id": 768, "name": "UCD N11 Entrance"}, {"lat": 53.3119010923178, "long": -6.22132785711797, "id": 769, "name": "Belfield Court"}, {"lat": 53.3146361875625, "long": -6.22573181130967, "id": 770, "name": "RTE"}, {"lat": 53.315880069244, "long": -6.22778152242798, "id": 771, "name": "Teresian School"}, {"lat": 53.3184852574564, "long": -6.23132106360088, "id": 772, "name": "Donnybrook Garage"}, {"lat": 53.3199163484799, "long": -6.23327331931076, "id": 773, "name": "Donnybrook Road"}, {"lat": 53.3216121235643, "long": -6.23549999641969, "id": 774, "name": "Donnybrook Garda Stn"}, {"lat": 53.3234897098062, "long": -6.23908544721608, "id": 775, "name": "Donnybrook Village"}, {"lat": 53.3254792402838, "long": -6.2417358210607, "id": 776, "name": "Morehampton Terrace"}, {"lat": 53.3269721601116, "long": -6.24362614364866, "id": 777, "name": "Royal Hospital"}, {"lat": 53.3288107659747, "long": -6.24763437727536, "id": 906, "name": "Leeson St Upper"}, {"lat": 53.3297193588591, "long": -6.25075010860462, "id": 907, "name": "St Johns Ambulance"}, {"lat": 53.3311542855373, "long": -6.25237303421837, "id": 908, "name": "Grand Parade"}, {"lat": 53.3331476599204, "long": -6.25407836385524, "id": 909, "name": "Fitzwilliam Place"}, {"lat": 53.3351467148295, "long": -6.25617403577253, "id": 786, "name": "Embassy of Malta"}, {"lat": 53.3404489881529, "long": -6.25858580845115, "id": 792, "name": "Dawson Street"}, null, {"lat": 53.3419704651789, "long": -6.25322228842485, "id": 7586, "name": "National Gallery"}, {"lat": 53.3444579282255, "long": -6.25122815978981, "id": 7587, "name": "Science Gallery"}, {"lat": 53.3454758154714, "long": -6.25629319407125, "id": 345, "name": "Pearse St Garda Stn"}, {"lat": 53.3456456323913, "long": -6.25930523253443, "id": 320, "name": "Westmoreland Street"}, {"lat": 53.3513435349612, "long": -6.26111600843156, "id": 281, "name": "O'Connell St Upper"}, {"lat": 53.3525745131874, "long": -6.26417548603793, "id": 4, "name": "Parnell Square West"}, {"lat": 53.3569939338404, "long": -6.25843708602609, "id": 4962, "name": "Mountjoy Square"}], "7B_91": [{"lat": 53.3569939338404, "long": -6.25843708602609, "id": 4962, "name": "Mountjoy Square"}, {"lat": 53.3502244282738, "long": -6.26018517538047, "id": 6059, "name": "The Spire of Dublin"}, {"lat": 53.3465811562075, "long": -6.25812559112211, "id": 334, "name": "D'Olier Street"}, {"lat": 53.3426061451661, "long": -6.25612494578256, "id": 406, "name": "Nassau Street"}, {"lat": 53.339930803028, "long": -6.25572351873592, "id": 747, "name": "Kildare Street"}, {"lat": 53.3372519750086, "long": -6.25631338920494, "id": 842, "name": "Stephen's Green East"}, {"lat": 53.3354534454667, "long": -6.25625161826536, "id": 845, "name": "Leeson St Lower"}, {"lat": 53.3334537330024, "long": -6.25411090847852, "id": 846, "name": "Fitzwilliam Place"}, {"lat": 53.3316014451652, "long": -6.25221961965172, "id": 847, "name": "Leeson St Upper"}, {"lat": 53.3297279908182, "long": -6.24888799835484, "id": 848, "name": "Sussex Road"}, {"lat": 53.3285299793468, "long": -6.24626462104787, "id": 2795, "name": "Leeson Village"}, {"lat": 53.3263997617809, "long": -6.24259874670305, "id": 756, "name": "Royal Hospital"}, {"lat": 53.324081337159, "long": -6.23958650985933, "id": 757, "name": "Donnybrook Village"}, {"lat": 53.3226869429553, "long": -6.2376773804315, "id": 758, "name": "Victoria Avenue"}, {"lat": 53.3203488508448, "long": -6.23334551683728, "id": 759, "name": "Donnybrook Stadium"}, {"lat": 53.318330187289, "long": -6.23056195593035, "id": 760, "name": "Donnybrook Church"}, {"lat": 53.3161004007996, "long": -6.22748721370695, "id": 761, "name": "Teresian School"}, {"lat": 53.3145170648506, "long": -6.22437094406488, "id": 762, "name": "RTE"}, {"lat": 53.3123201447844, "long": -6.2211003190802, "id": 763, "name": "Belfield Court"}, {"lat": 53.3088750410416, "long": -6.21611120483348, "id": 2007, "name": "Woodbine Road"}, {"lat": 53.3056004028805, "long": -6.21111575700179, "id": 2008, "name": "Seafield Road"}, {"lat": 53.303339573355, "long": -6.20780413886582, "id": 2009, "name": "Radisson Hotel"}, {"lat": 53.298897241336, "long": -6.20467441020997, "id": 2010, "name": "Booterstown Avenue"}, {"lat": 53.2959890439313, "long": -6.20374622631809, "id": 435, "name": "Sycamore Cresent"}, {"lat": 53.2934957288645, "long": -6.20172063261915, "id": 7353, "name": "Priory Grove"}, {"lat": 53.2901329566267, "long": -6.19272664739594, "id": 7584, "name": "Stillorgan Grove"}, {"lat": 53.2898996573052, "long": -6.18624135181958, "id": 3344, "name": "Coppinger Wood"}, {"lat": 53.2894131851506, "long": -6.17615183874792, "id": 7421, "name": "Annaville Terrace"}, {"lat": 53.2875241271997, "long": -6.17077247892118, "id": 7422, "name": "Rowanbyrn"}, {"lat": 53.2864920895693, "long": -6.16619682053361, "id": 6085, "name": "Grange Grove"}, {"lat": 53.2848462329975, "long": -6.16029785598614, "id": 2053, "name": "Abbey Park"}, {"lat": 53.2832385379662, "long": -6.15921207580309, "id": 2054, "name": "Rory O'Connor Park"}, {"lat": 53.2814599366222, "long": -6.15811872882555, "id": 2055, "name": "Casement Villas"}, {"lat": 53.2758242046478, "long": -6.15114825583341, "id": 4732, "name": "National Rehab Hosp"}, {"lat": 53.2741733398162, "long": -6.14844545130621, "id": 3243, "name": "Somerton"}, {"lat": 53.2725500612644, "long": -6.14578664145038, "id": 3244, "name": "Garden Centre"}, {"lat": 53.2706836138455, "long": -6.14252382818304, "id": 3245, "name": "Johnstown Road"}, {"lat": 53.2691150351549, "long": -6.13992305144187, "id": 3212, "name": "Granitefield"}, {"lat": 53.267061992522, "long": -6.13623408218761, "id": 3213, "name": "Killiney SC"}, {"lat": 53.2646008432281, "long": -6.13461709780435, "id": 3214, "name": "Churchview Road"}, {"lat": 53.2620312700783, "long": -6.13756219248251, "id": 3215, "name": "Auburn Drive"}, {"lat": 53.2588723069006, "long": -6.1378793432369, "id": 3216, "name": "Kilbogget Park"}, {"lat": 53.2570425975944, "long": -6.13583040408577, "id": 3217, "name": "Ballybrack SC"}, {"lat": 53.2549234444038, "long": -6.13252024013518, "id": 3218, "name": "Pinewood"}, {"lat": 53.2531103794186, "long": -6.13096557739732, "id": 3219, "name": "Oakton Park"}, {"lat": 53.2519528920837, "long": -6.12365732889128, "id": 3537, "name": "Ballybrack Cross"}, {"lat": 53.2496624405552, "long": -6.12318808857716, "id": 3538, "name": "Sheelin Estate"}, {"lat": 53.2480439849055, "long": -6.12315403365151, "id": 7556, "name": "The Elms"}, {"lat": 53.2440183365468, "long": -6.12151711523642, "id": 3539, "name": "River Close"}, {"lat": 53.2426809255031, "long": -6.12163563524093, "id": 3540, "name": "Shanganagh Bridge"}, {"lat": 53.2388260877792, "long": -6.12285324474744, "id": 3541, "name": "Hazelwood"}, {"lat": 53.2364001688533, "long": -6.12291446549235, "id": 3542, "name": "Rathsallagh"}, {"lat": 53.234367129675, "long": -6.12223939407037, "id": 3544, "name": "Beechfield Manor"}]}