{"7D_122": [{"lat": 53.278384341361, "long": -6.10694819720101, "id": 3057, "name": "Dalkey Village"}, {"lat": 53.2800139122802, "long": -6.10711611757965, "id": 3059, "name": "Church Road"}, {"lat": 53.2841599607951, "long": -6.10783275052506, "id": 3061, "name": "Our Lady's Manor"}, {"lat": 53.315880069244, "long": -6.22778152242798, "id": 771, "name": "Teresian School"}, {"lat": 53.3184852574564, "long": -6.23132106360088, "id": 772, "name": "Donnybrook Garage"}, {"lat": 53.3199163484799, "long": -6.23327331931076, "id": 773, "name": "Donnybrook Road"}, {"lat": 53.3444579282255, "long": -6.25122815978981, "id": 7587, "name": "Science Gallery"}, {"lat": 53.3454758154714, "long": -6.25629319407125, "id": 345, "name": "Pearse St Garda Stn"}, {"lat": 53.3456456323913, "long": -6.25930523253443, "id": 320, "name": "Westmoreland Street"}, {"lat": 53.3513435349612, "long": -6.26111600843156, "id": 281, "name": "O'Connell St Upper"}, {"lat": 53.3525745131874, "long": -6.26417548603793, "id": 4, "name": "Parnell Square West"}, {"lat": 53.3571703015154, "long": -6.25820453691996, "id": 7555, "name": "Mountjoy Square"}, {"lat": 53.3569939338404, "long": -6.25843708602609, "id": 4962, "name": "Mountjoy Square"}], "7D_121": [{"lat": 53.278384341361, "long": -6.10694819720101, "id": 3057, "name": "Dalkey Village"}, {"lat": 53.2800139122802, "long": -6.10711611757965, "id": 3059, "name": "Church Road"}, {"lat": 53.2821419601023, "long": -6.10697705836505, "id": 3060, "name": "The Paddocks"}, {"lat": 53.2841599607951, "long": -6.10783275052506, "id": 3061, "name": "Our Lady's Manor"}, {"lat": 53.2855435411939, "long": -6.11176134122501, "id": 3062, "name": "Breffni Road"}, {"lat": 53.2859751405778, "long": -6.1163170447788, "id": 3063, "name": "Sandycove Road"}, {"lat": 53.2860328652453, "long": -6.11940433013809, "id": 3064, "name": "Brudett Avenue"}, {"lat": 53.2869934492902, "long": -6.12275201988678, "id": 3065, "name": "Glasthule"}, {"lat": 53.2877232595929, "long": -6.12571996545645, "id": 3066, "name": "St Joseph's Church"}, {"lat": 53.2884048690809, "long": -6.1273401212366, "id": 3067, "name": "Sandycove Station"}, {"lat": 53.2888504756656, "long": -6.12996064936531, "id": 3202, "name": "Glenageary Rd Lower"}, {"lat": 53.2852204971734, "long": -6.13233901798263, "id": 3203, "name": "Traverslea Close"}, {"lat": 53.2824353372615, "long": -6.13414025296547, "id": 3204, "name": "Silchester Park"}, {"lat": 53.2827840372548, "long": -6.14727826661721, "id": 4568, "name": "Kill Avenue"}, {"lat": 53.2816226985174, "long": -6.15295258368444, "id": 4569, "name": "IADT Dun Laoghaire"}, null, {"lat": 53.2812918182702, "long": -6.15829093095012, "id": 2023, "name": "Abbey Road"}, {"lat": 53.2834492978017, "long": -6.15947298224867, "id": 2024, "name": "Rory O'Connor Park"}, {"lat": 53.2849038275037, "long": -6.16053535986143, "id": 2025, "name": "Abbey Park"}, {"lat": 53.286244480501, "long": -6.16529247984307, "id": 6086, "name": "Grange Grove"}, {"lat": 53.287381328142, "long": -6.17083857786479, "id": 7419, "name": "Rowanbyrn"}, {"lat": 53.289259022994, "long": -6.17723841626308, "id": 7420, "name": "Annaville Terrace"}, {"lat": 53.2894020575976, "long": -6.18543742382604, "id": 3345, "name": "Stillorgan Park"}, {"lat": 53.2908117067854, "long": -6.19778320998183, "id": 4727, "name": "Laurence Park"}, {"lat": 53.2933378858333, "long": -6.20198228925727, "id": 4728, "name": "Oatlands College"}, {"lat": 53.2947995033019, "long": -6.2035411112381, "id": 461, "name": "Stillorgan Pk Hotel"}, {"lat": 53.2980957596915, "long": -6.20457300251724, "id": 2068, "name": "Sycamore Cresent"}, {"lat": 53.29977469015, "long": -6.20564285265254, "id": 2069, "name": "Booterstown Avenue"}, {"lat": 53.3030660704342, "long": -6.20814570183998, "id": 2070, "name": "St Thomas Road"}, {"lat": 53.3055267568845, "long": -6.2115990204445, "id": 2084, "name": "Seafield Road"}, {"lat": 53.3094181940068, "long": -6.21877482979347, "id": 768, "name": "UCD N11 Entrance"}, {"lat": 53.3119010923178, "long": -6.22132785711797, "id": 769, "name": "Belfield Court"}, {"lat": 53.3146361875625, "long": -6.22573181130967, "id": 770, "name": "RTE"}, {"lat": 53.315880069244, "long": -6.22778152242798, "id": 771, "name": "Teresian School"}, {"lat": 53.3184852574564, "long": -6.23132106360088, "id": 772, "name": "Donnybrook Garage"}, {"lat": 53.3199163484799, "long": -6.23327331931076, "id": 773, "name": "Donnybrook Road"}, {"lat": 53.3216121235643, "long": -6.23549999641969, "id": 774, "name": "Donnybrook Garda Stn"}, {"lat": 53.3234897098062, "long": -6.23908544721608, "id": 775, "name": "Donnybrook Village"}, {"lat": 53.3254792402838, "long": -6.2417358210607, "id": 776, "name": "Morehampton Terrace"}, {"lat": 53.3269721601116, "long": -6.24362614364866, "id": 777, "name": "Royal Hospital"}, {"lat": 53.3288107659747, "long": -6.24763437727536, "id": 906, "name": "Leeson St Upper"}, {"lat": 53.3297193588591, "long": -6.25075010860462, "id": 907, "name": "St Johns Ambulance"}, {"lat": 53.3311542855373, "long": -6.25237303421837, "id": 908, "name": "Grand Parade"}, {"lat": 53.3331476599204, "long": -6.25407836385524, "id": 909, "name": "Fitzwilliam Place"}, {"lat": 53.3351467148295, "long": -6.25617403577253, "id": 786, "name": "Embassy of Malta"}, {"lat": 53.3404489881529, "long": -6.25858580845115, "id": 792, "name": "Dawson Street"}, {"lat": 53.3419704651789, "long": -6.25322228842485, "id": 7586, "name": "National Gallery"}, {"lat": 53.3444579282255, "long": -6.25122815978981, "id": 7587, "name": "Science Gallery"}, {"lat": 53.3454758154714, "long": -6.25629319407125, "id": 345, "name": "Pearse St Garda Stn"}, {"lat": 53.3456456323913, "long": -6.25930523253443, "id": 320, "name": "Westmoreland Street"}, {"lat": 53.3513435349612, "long": -6.26111600843156, "id": 281, "name": "O'Connell St Upper"}, {"lat": 53.3525745131874, "long": -6.26417548603793, "id": 4, "name": "Parnell Square West"}, {"lat": 53.3571703015154, "long": -6.25820453691996, "id": 7555, "name": "Mountjoy Square"}, {"lat": 53.3569939338404, "long": -6.25843708602609, "id": 4962, "name": "Mountjoy Square"}], "7D_120": [{"lat": 53.3569939338404, "long": -6.25843708602609, "id": 4962, "name": "Mountjoy Square"}, {"lat": 53.352115616113, "long": -6.26105453403103, "id": 4725, "name": "O'Connell St Upper"}, {"lat": 53.3502244282738, "long": -6.26018517538047, "id": 6059, "name": "The Spire of Dublin"}, {"lat": 53.3465811562075, "long": -6.25812559112211, "id": 334, "name": "D'Olier Street"}, {"lat": 53.3426061451661, "long": -6.25612494578256, "id": 406, "name": "Nassau Street"}, {"lat": 53.339930803028, "long": -6.25572351873592, "id": 747, "name": "Kildare Street"}, {"lat": 53.3372519750086, "long": -6.25631338920494, "id": 842, "name": "Stephen's Green East"}, {"lat": 53.3354534454667, "long": -6.25625161826536, "id": 845, "name": "Leeson St Lower"}, {"lat": 53.3334537330024, "long": -6.25411090847852, "id": 846, "name": "Fitzwilliam Place"}, {"lat": 53.3316014451652, "long": -6.25221961965172, "id": 847, "name": "Leeson St Upper"}, {"lat": 53.3297279908182, "long": -6.24888799835484, "id": 848, "name": "Sussex Road"}, {"lat": 53.3285299793468, "long": -6.24626462104787, "id": 2795, "name": "Leeson Village"}, {"lat": 53.3263997617809, "long": -6.24259874670305, "id": 756, "name": "Royal Hospital"}, {"lat": 53.324081337159, "long": -6.23958650985933, "id": 757, "name": "Donnybrook Village"}, {"lat": 53.3226869429553, "long": -6.2376773804315, "id": 758, "name": "Victoria Avenue"}, {"lat": 53.3203488508448, "long": -6.23334551683728, "id": 759, "name": "Donnybrook Stadium"}, {"lat": 53.318330187289, "long": -6.23056195593035, "id": 760, "name": "Donnybrook Church"}, {"lat": 53.3161004007996, "long": -6.22748721370695, "id": 761, "name": "Teresian School"}, {"lat": 53.3145170648506, "long": -6.22437094406488, "id": 762, "name": "RTE"}, {"lat": 53.3123201447844, "long": -6.2211003190802, "id": 763, "name": "Belfield Court"}, {"lat": 53.3088750410416, "long": -6.21611120483348, "id": 2007, "name": "Woodbine Road"}, {"lat": 53.3056004028805, "long": -6.21111575700179, "id": 2008, "name": "Seafield Road"}, {"lat": 53.303339573355, "long": -6.20780413886582, "id": 2009, "name": "Radisson Hotel"}, {"lat": 53.298897241336, "long": -6.20467441020997, "id": 2010, "name": "Booterstown Avenue"}, {"lat": 53.2959890439313, "long": -6.20374622631809, "id": 435, "name": "Sycamore Cresent"}, {"lat": 53.2934957288645, "long": -6.20172063261915, "id": 7353, "name": "Priory Grove"}, {"lat": 53.2901329566267, "long": -6.19272664739594, "id": 7584, "name": "Stillorgan Grove"}, {"lat": 53.2898996573052, "long": -6.18624135181958, "id": 3344, "name": "Coppinger Wood"}, {"lat": 53.2894131851506, "long": -6.17615183874792, "id": 7421, "name": "Annaville Terrace"}, {"lat": 53.2875241271997, "long": -6.17077247892118, "id": 7422, "name": "Rowanbyrn"}, {"lat": 53.2864920895693, "long": -6.16619682053361, "id": 6085, "name": "Grange Grove"}, {"lat": 53.2848462329975, "long": -6.16029785598614, "id": 2053, "name": "Abbey Park"}, {"lat": 53.2832385379662, "long": -6.15921207580309, "id": 2054, "name": "Rory O'Connor Park"}, {"lat": 53.2814599366222, "long": -6.15811872882555, "id": 2055, "name": "Casement Villas"}, {"lat": 53.2813421956444, "long": -6.15515430522703, "id": 4565, "name": "Kill Avenue"}, {"lat": 53.2819240750061, "long": -6.15209971767419, "id": 4566, "name": "IADT Dun Laoghaire"}, {"lat": 53.2829289189039, "long": -6.14734698810458, "id": 4567, "name": "Glenageary Road"}, {"lat": 53.283309733396, "long": -6.13372719850771, "id": 3238, "name": "Holmston Avenue"}, {"lat": 53.2843864951823, "long": -6.13303533097992, "id": 3239, "name": "Crosthwaite Park"}, {"lat": 53.2871718711238, "long": -6.13124892862004, "id": 3240, "name": "Corrig Road"}, {"lat": 53.2884360889385, "long": -6.12703875625878, "id": 3048, "name": "Sandycove Station"}, {"lat": 53.28740610423, "long": -6.1244138836199, "id": 3049, "name": "St Joseph's Church"}, {"lat": 53.2869490232388, "long": -6.12221398722346, "id": 3050, "name": "Glasthule"}, {"lat": 53.2861243256503, "long": -6.11779540064788, "id": 3051, "name": "Sandycove Road"}, {"lat": 53.2859077245715, "long": -6.114895095088, "id": 3052, "name": "Elton Park"}, {"lat": 53.2855898368877, "long": -6.11127933122854, "id": 3053, "name": "Breffni Road"}, {"lat": 53.2841020240658, "long": -6.10758033626926, "id": 3054, "name": "Ulverton Road"}, {"lat": 53.2818349023691, "long": -6.10688564831263, "id": 3055, "name": "South Winds"}, {"lat": 53.2803100842437, "long": -6.10708802948226, "id": 3056, "name": "Church Road"}, {"lat": 53.278384341361, "long": -6.10694819720101, "id": 3057, "name": "Dalkey Village"}], "7D_123": [{"lat": 53.278384341361, "long": -6.10694819720101, "id": 3057, "name": "Dalkey Village"}, {"lat": 53.2772540928633, "long": -6.11446620773607, "id": 4830, "name": "Barnhill Road"}, {"lat": 53.2768275477674, "long": -6.11932867016879, "id": 7667, "name": "Saval Park Road"}, {"lat": 53.2736454077168, "long": -6.12387685471155, "id": 3091, "name": "Avondale Road"}, {"lat": 53.2720738489749, "long": -6.12682457731465, "id": 3092, "name": "Arnold Grove"}, {"lat": 53.2703459406442, "long": -6.13012375959349, "id": 3093, "name": "Arnold Park"}, {"lat": 53.2568175242791, "long": -6.12720659406664, "id": 3535, "name": "Church Road"}, {"lat": 53.2538610846826, "long": -6.12496767711338, "id": 3536, "name": "Ballybrack Village"}, {"lat": 53.2519528920837, "long": -6.12365732889128, "id": 3537, "name": "Ballybrack Cross"}, {"lat": 53.2496624405552, "long": -6.12318808857716, "id": 3538, "name": "Sheelin Estate"}, {"lat": 53.2480439849055, "long": -6.12315403365151, "id": 7556, "name": "The Elms"}, {"lat": 53.2440183365468, "long": -6.12151711523642, "id": 3539, "name": "River Close"}, {"lat": 53.2426809255031, "long": -6.12163563524093, "id": 3540, "name": "Shanganagh Bridge"}, {"lat": 53.2388260877792, "long": -6.12285324474744, "id": 3541, "name": "Hazelwood"}, {"lat": 53.2364001688533, "long": -6.12291446549235, "id": 3542, "name": "Rathsallagh"}, {"lat": 53.2337286400103, "long": -6.1233609435765, "id": 3543, "name": "St Anne's Church"}, {"lat": 53.234556576782, "long": -6.12513743918007, "id": 3141, "name": "Station Road"}, {"lat": 53.2380654030031, "long": -6.12763593999184, "id": 3142, "name": "Kentfield"}, {"lat": 53.2519458475769, "long": -6.13236519549721, "id": 3224, "name": "Ashlawn"}, {"lat": 53.2552948672851, "long": -6.13385300991221, "id": 3225, "name": "Ballybrack SC"}, {"lat": 53.2585470715912, "long": -6.13777355798243, "id": 3226, "name": "Kilbogget Park"}, {"lat": 53.2619541741584, "long": -6.13780539377764, "id": 3227, "name": "Auburn Drive"}, {"lat": 53.2647542453765, "long": -6.13465539470502, "id": 3228, "name": "Church Road"}, {"lat": 53.2653527759427, "long": -6.13441945272899, "id": 3229, "name": "Churchview Road"}, {"lat": 53.2670680823354, "long": -6.13662362130875, "id": 7472, "name": "Killiney SC"}, {"lat": 53.2685015291178, "long": -6.13920003918439, "id": 3230, "name": "Drumkeen Manor"}, {"lat": 53.271603968895, "long": -6.14044473324485, "id": 3232, "name": "Pearse Villas"}, {"lat": 53.2727414786546, "long": -6.14134000425089, "id": 3233, "name": "Pearse Street"}, {"lat": 53.273603612972, "long": -6.13956320637259, "id": 3234, "name": "Sallynoggin College"}, {"lat": 53.2751672745563, "long": -6.13781581797221, "id": 4462, "name": "Sallynoggin"}, {"lat": 53.277180707391, "long": -6.14069748612017, "id": 3235, "name": "Pearse Park"}, {"lat": 53.2779835040123, "long": -6.14030272461487, "id": 3236, "name": "Honey Park"}, {"lat": 53.2791423584346, "long": -6.13795791119735, "id": 3237, "name": "Sarsfield Street"}, {"lat": 53.283309733396, "long": -6.13372719850771, "id": 3238, "name": "Holmston Avenue"}, {"lat": 53.2843864951823, "long": -6.13303533097992, "id": 3239, "name": "Crosthwaite Park"}, {"lat": 53.2871718711238, "long": -6.13124892862004, "id": 3240, "name": "Corrig Road"}, {"lat": 53.2898294885121, "long": -6.13048790165208, "id": 3068, "name": "George's St Upper"}, {"lat": 53.2907530253444, "long": -6.13263768269568, "id": 3069, "name": "Corrig Avenue"}, {"lat": 53.2921151004321, "long": -6.13581853383444, "id": 3070, "name": "Dun Laoghaire SC"}, {"lat": 53.2935976049862, "long": -6.13923437692796, "id": 2041, "name": "St Michael's Hosp"}, {"lat": 53.2949847179943, "long": -6.14518996894824, "id": 3071, "name": "De Vesci Park"}, {"lat": 53.2941852190007, "long": -6.14869006112065, "id": 3072, "name": "Grosvenor Terrace"}, {"lat": 53.2937825861192, "long": -6.1551882458193, "id": 3073, "name": "Monkstown Road"}, {"lat": 53.2944930303395, "long": -6.15928318174833, "id": 3074, "name": "Drayton Close"}, {"lat": 53.2948803787225, "long": -6.16225195149105, "id": 3075, "name": "Queen's Park"}, {"lat": 53.2954328088593, "long": -6.16602382283996, "id": 3076, "name": "Montpellier Parade"}, {"lat": 53.2959197205688, "long": -6.16846336894464, "id": 3077, "name": "Montpellier Manor"}, {"lat": 53.3013812515137, "long": -6.18116341196197, "id": 3084, "name": "Frascati SC"}, {"lat": 53.3028457292126, "long": -6.18407213264847, "id": 469, "name": "Rock Road"}, {"lat": 53.3056258500263, "long": -6.18898110376377, "id": 470, "name": "Blackrock Clinic"}, {"lat": 53.3068708073446, "long": -6.19105929913705, "id": 471, "name": "Blackrock College"}, {"lat": 53.3078820347442, "long": -6.19491826731321, "id": 472, "name": "Booterstown Station"}, {"lat": 53.3092405753985, "long": -6.19738213927117, "id": 473, "name": "Grotto Avenue"}, {"lat": 53.3108182690603, "long": -6.20007706605352, "id": 4705, "name": "St Helen's Road"}, {"lat": 53.312706162538, "long": -6.20188867460386, "id": 475, "name": "Bellevue Avenue"}, {"lat": 53.3157515263735, "long": -6.20476252273258, "id": 476, "name": "Merrion Gates"}, {"lat": 53.3168630546851, "long": -6.20695232009327, "id": 477, "name": "Herbert Avenue"}, {"lat": 53.3181142989183, "long": -6.21126782530883, "id": 478, "name": "St Vincent's Hosp"}, {"lat": 53.3183737112471, "long": -6.2135835670217, "id": 7053, "name": "Nutley Lane"}, {"lat": 53.3172966893497, "long": -6.21609017469618, "id": 2088, "name": "St Vincent's Hosp"}, {"lat": 53.3153019937698, "long": -6.21974555361785, "id": 2089, "name": "RTE"}, {"lat": 53.3146361875625, "long": -6.22573181130967, "id": 770, "name": "RTE"}, {"lat": 53.315880069244, "long": -6.22778152242798, "id": 771, "name": "Teresian School"}, {"lat": 53.3184852574564, "long": -6.23132106360088, "id": 772, "name": "Donnybrook Garage"}, {"lat": 53.3276995856533, "long": -6.22597042048849, "id": 417, "name": "Merrion Road"}, {"lat": 53.3282515101299, "long": -6.22863497077614, "id": 485, "name": "RDS Ballsbridge"}, {"lat": 53.3308552893834, "long": -6.23390230837204, "id": 487, "name": "American Embassy"}, {"lat": 53.333098554632, "long": -6.23607694701102, "id": 488, "name": "Lansdowne Park"}, {"lat": 53.3349420031478, "long": -6.23735231265615, "id": 489, "name": "St Mary's Rd South"}, {"lat": 53.3365738419154, "long": -6.23890680600162, "id": 490, "name": "Haddington Road"}, {"lat": 53.3378140535117, "long": -6.24133351088669, "id": 491, "name": "Mount Street Bridge"}, {"lat": 53.3385846851446, "long": -6.24361446215904, "id": 492, "name": "Mount Street Lower"}, {"lat": 53.3398534163799, "long": -6.24737682273893, "id": 493, "name": "Holles Street"}, {"lat": 53.341435583359, "long": -6.25168225233912, "id": 494, "name": "Clare Street"}, {"lat": 53.3435913198155, "long": -6.24974670516899, "id": 495, "name": "Pearse Station"}, {"lat": 53.3444579282255, "long": -6.25122815978981, "id": 7587, "name": "Science Gallery"}, {"lat": 53.3454758154714, "long": -6.25629319407125, "id": 345, "name": "Pearse St Garda Stn"}, {"lat": 53.3456456323913, "long": -6.25930523253443, "id": 320, "name": "Westmoreland Street"}, null, {"lat": 53.3513435349612, "long": -6.26111600843156, "id": 281, "name": "O'Connell St Upper"}, {"lat": 53.3525745131874, "long": -6.26417548603793, "id": 4, "name": "Parnell Square West"}, {"lat": 53.3569939338404, "long": -6.25843708602609, "id": 4962, "name": "Mountjoy Square"}]}